{
"type": "FeatureCollection",
"crs": { "type": "name", "properties": { "name": "urn:ogc:def:crs:OGC:1.3:CRS84" } },
"features": [
{ "type": "Feature", "properties": { "field_1": 3159, "event_id_cnty": "SYR106057", "day": "30", "month": "9", "year": "2022", "location": "Kherbet Ghazala", "latitude": 32.7345, "longitude": 36.2033 }, "geometry": { "type": "Point", "coordinates": [ 36.2033, 32.7345 ] } },
{ "type": "Feature", "properties": { "field_1": 3160, "event_id_cnty": "SYR106085", "day": "30", "month": "9", "year": "2022", "location": "Ankawi", "latitude": 35.5967, "longitude": 36.3877 }, "geometry": { "type": "Point", "coordinates": [ 36.3877, 35.5967 ] } },
{ "type": "Feature", "properties": { "field_1": 3161, "event_id_cnty": "SYR106132", "day": "30", "month": "9", "year": "2022", "location": "Tal Jammeh", "latitude": 36.6645, "longitude": 40.3466 }, "geometry": { "type": "Point", "coordinates": [ 40.3466, 36.6645 ] } },
{ "type": "Feature", "properties": { "field_1": 3162, "event_id_cnty": "SYR106133", "day": "30", "month": "9", "year": "2022", "location": "Tal Kifji", "latitude": 36.6699, "longitude": 40.3352 }, "geometry": { "type": "Point", "coordinates": [ 40.3352, 36.6699 ] } },
{ "type": "Feature", "properties": { "field_1": 3163, "event_id_cnty": "SYR106158", "day": "30", "month": "9", "year": "2022", "location": "Jasim", "latitude": 32.9912, "longitude": 36.0602 }, "geometry": { "type": "Point", "coordinates": [ 36.0602, 32.9912 ] } },
{ "type": "Feature", "properties": { "field_1": 3164, "event_id_cnty": "SYR106187", "day": "30", "month": "9", "year": "2022", "location": "Regiment 46 - Military Base", "latitude": 36.1239, "longitude": 36.888 }, "geometry": { "type": "Point", "coordinates": [ 36.888, 36.1239 ] } },
{ "type": "Feature", "properties": { "field_1": 3165, "event_id_cnty": "SYR106075", "day": "30", "month": "9", "year": "2022", "location": "Regiment 111 Army Base", "latitude": 36.2586, "longitude": 36.8952 }, "geometry": { "type": "Point", "coordinates": [ 36.8952, 36.2586 ] } },
{ "type": "Feature", "properties": { "field_1": 3166, "event_id_cnty": "SYR106089", "day": "30", "month": "9", "year": "2022", "location": "Banin", "latitude": 35.7097, "longitude": 36.6401 }, "geometry": { "type": "Point", "coordinates": [ 36.6401, 35.7097 ] } },
{ "type": "Feature", "properties": { "field_1": 3167, "event_id_cnty": "SYR106111", "day": "30", "month": "9", "year": "2022", "location": "Kafr Amma", "latitude": 36.1409, "longitude": 36.8735 }, "geometry": { "type": "Point", "coordinates": [ 36.8735, 36.1409 ] } },
{ "type": "Feature", "properties": { "field_1": 3168, "event_id_cnty": "SYR106149", "day": "30", "month": "9", "year": "2022", "location": "Khan Arnaba", "latitude": 33.1821, "longitude": 35.8908 }, "geometry": { "type": "Point", "coordinates": [ 35.8908, 33.1821 ] } },
{ "type": "Feature", "properties": { "field_1": 3169, "event_id_cnty": "SYR106096", "day": "30", "month": "9", "year": "2022", "location": "Bara", "latitude": 35.686, "longitude": 36.5424 }, "geometry": { "type": "Point", "coordinates": [ 36.5424, 35.686 ] } },
{ "type": "Feature", "properties": { "field_1": 3170, "event_id_cnty": "SYR106058", "day": "30", "month": "9", "year": "2022", "location": "Um Batna", "latitude": 33.1224, "longitude": 35.9015 }, "geometry": { "type": "Point", "coordinates": [ 35.9015, 33.1224 ] } },
{ "type": "Feature", "properties": { "field_1": 3171, "event_id_cnty": "SYR106024", "day": "30", "month": "9", "year": "2022", "location": "Alia", "latitude": 36.6108, "longitude": 40.1045 }, "geometry": { "type": "Point", "coordinates": [ 40.1045, 36.6108 ] } },
{ "type": "Feature", "properties": { "field_1": 3172, "event_id_cnty": "SYR106175", "day": "30", "month": "9", "year": "2022", "location": "Qubur al-Qarajna", "latitude": 36.7231, "longitude": 40.3903 }, "geometry": { "type": "Point", "coordinates": [ 40.3903, 36.7231 ] } },
{ "type": "Feature", "properties": { "field_1": 3173, "event_id_cnty": "SYR106176", "day": "30", "month": "9", "year": "2022", "location": "Tal Tamer", "latitude": 36.6534, "longitude": 40.3718 }, "geometry": { "type": "Point", "coordinates": [ 40.3718, 36.6534 ] } },
{ "type": "Feature", "properties": { "field_1": 3174, "event_id_cnty": "SYR106125", "day": "30", "month": "9", "year": "2022", "location": "Qulaydin", "latitude": 35.6132, "longitude": 36.3855 }, "geometry": { "type": "Point", "coordinates": [ 36.3855, 35.6132 ] } },
{ "type": "Feature", "properties": { "field_1": 3175, "event_id_cnty": "SYR106012", "day": "30", "month": "9", "year": "2022", "location": "Hawshariya", "latitude": 36.6419, "longitude": 38.0707 }, "geometry": { "type": "Point", "coordinates": [ 38.0707, 36.6419 ] } },
{ "type": "Feature", "properties": { "field_1": 3176, "event_id_cnty": "SYR106000", "day": "30", "month": "9", "year": "2022", "location": "Menbij", "latitude": 36.5258, "longitude": 37.951 }, "geometry": { "type": "Point", "coordinates": [ 37.951, 36.5258 ] } },
{ "type": "Feature", "properties": { "field_1": 3177, "event_id_cnty": "SYR106079", "day": "30", "month": "9", "year": "2022", "location": "Al-Hamidiah", "latitude": 35.6547, "longitude": 36.3885 }, "geometry": { "type": "Point", "coordinates": [ 36.3885, 35.6547 ] } },
{ "type": "Feature", "properties": { "field_1": 3178, "event_id_cnty": "SYR106037", "day": "30", "month": "9", "year": "2022", "location": "As-Sweida", "latitude": 32.7068, "longitude": 36.568 }, "geometry": { "type": "Point", "coordinates": [ 36.568, 32.7068 ] } },
{ "type": "Feature", "properties": { "field_1": 3179, "event_id_cnty": "SYR106159", "day": "30", "month": "9", "year": "2022", "location": "Maan", "latitude": 35.3587, "longitude": 36.7959 }, "geometry": { "type": "Point", "coordinates": [ 36.7959, 35.3587 ] } },
{ "type": "Feature", "properties": { "field_1": 3180, "event_id_cnty": "SYR106054", "day": "30", "month": "9", "year": "2022", "location": "Teftnaz", "latitude": 35.9977, "longitude": 36.7833 }, "geometry": { "type": "Point", "coordinates": [ 36.7833, 35.9977 ] } },
{ "type": "Feature", "properties": { "field_1": 3181, "event_id_cnty": "SYR106078", "day": "30", "month": "9", "year": "2022", "location": "Al Hallubah", "latitude": 35.6127, "longitude": 36.419 }, "geometry": { "type": "Point", "coordinates": [ 36.419, 35.6127 ] } },
{ "type": "Feature", "properties": { "field_1": 3182, "event_id_cnty": "SYR106004", "day": "30", "month": "9", "year": "2022", "location": "Zir", "latitude": 35.1248, "longitude": 40.4346 }, "geometry": { "type": "Point", "coordinates": [ 40.4346, 35.1248 ] } },
{ "type": "Feature", "properties": { "field_1": 3183, "event_id_cnty": "SYR105998", "day": "30", "month": "9", "year": "2022", "location": "Abu Khashab", "latitude": 35.9362, "longitude": 40.0351 }, "geometry": { "type": "Point", "coordinates": [ 40.0351, 35.9362 ] } },
{ "type": "Feature", "properties": { "field_1": 3184, "event_id_cnty": "TUR27593", "day": "30", "month": "9", "year": "2022", "location": "Dereler", "latitude": 37.6073, "longitude": 42.7478 }, "geometry": { "type": "Point", "coordinates": [ 42.7478, 37.6073 ] } },
{ "type": "Feature", "properties": { "field_1": 3185, "event_id_cnty": "SYR105989", "day": "30", "month": "9", "year": "2022", "location": "Ruwaiha", "latitude": 35.7378, "longitude": 36.695 }, "geometry": { "type": "Point", "coordinates": [ 36.695, 35.7378 ] } },
{ "type": "Feature", "properties": { "field_1": 3186, "event_id_cnty": "SYR106136", "day": "30", "month": "9", "year": "2022", "location": "Mseibin", "latitude": 35.8398, "longitude": 36.6415 }, "geometry": { "type": "Point", "coordinates": [ 36.6415, 35.8398 ] } },
{ "type": "Feature", "properties": { "field_1": 3187, "event_id_cnty": "SYR105991", "day": "30", "month": "9", "year": "2022", "location": "Hersh Banin", "latitude": 35.7133, "longitude": 36.6556 }, "geometry": { "type": "Point", "coordinates": [ 36.6556, 35.7133 ] } },
{ "type": "Feature", "properties": { "field_1": 3188, "event_id_cnty": "SYR106135", "day": "30", "month": "9", "year": "2022", "location": "Jabal Arba'in", "latitude": 35.7824, "longitude": 36.6228 }, "geometry": { "type": "Point", "coordinates": [ 36.6228, 35.7824 ] } },
{ "type": "Feature", "properties": { "field_1": 3189, "event_id_cnty": "SYR106040", "day": "30", "month": "9", "year": "2022", "location": "Mahjeh", "latitude": 32.9583, "longitude": 36.2222 }, "geometry": { "type": "Point", "coordinates": [ 36.2222, 32.9583 ] } },
{ "type": "Feature", "properties": { "field_1": 3190, "event_id_cnty": "SYR106001", "day": "29", "month": "9", "year": "2022", "location": "Saraqab", "latitude": 35.8611, "longitude": 36.8061 }, "geometry": { "type": "Point", "coordinates": [ 36.8061, 35.8611 ] } },
{ "type": "Feature", "properties": { "field_1": 3191, "event_id_cnty": "SYR106151", "day": "29", "month": "9", "year": "2022", "location": "Basira", "latitude": 35.158, "longitude": 40.4277 }, "geometry": { "type": "Point", "coordinates": [ 40.4277, 35.158 ] } },
{ "type": "Feature", "properties": { "field_1": 3192, "event_id_cnty": "SYR106027", "day": "29", "month": "9", "year": "2022", "location": "Al Shanan", "latitude": 34.9708, "longitude": 40.5641 }, "geometry": { "type": "Point", "coordinates": [ 40.5641, 34.9708 ] } },
{ "type": "Feature", "properties": { "field_1": 3193, "event_id_cnty": "SYR106039", "day": "29", "month": "9", "year": "2022", "location": "Idleb", "latitude": 35.929, "longitude": 36.6353 }, "geometry": { "type": "Point", "coordinates": [ 36.6353, 35.929 ] } },
{ "type": "Feature", "properties": { "field_1": 3194, "event_id_cnty": "SYR106181", "day": "29", "month": "9", "year": "2022", "location": "Atareb", "latitude": 36.1379, "longitude": 36.8284 }, "geometry": { "type": "Point", "coordinates": [ 36.8284, 36.1379 ] } },
{ "type": "Feature", "properties": { "field_1": 3195, "event_id_cnty": "SYR106110", "day": "29", "month": "9", "year": "2022", "location": "Kafr Amma", "latitude": 36.1409, "longitude": 36.8735 }, "geometry": { "type": "Point", "coordinates": [ 36.8735, 36.1409 ] } },
{ "type": "Feature", "properties": { "field_1": 3196, "event_id_cnty": "SYR106173", "day": "29", "month": "9", "year": "2022", "location": "Kozliyeh", "latitude": 36.6249, "longitude": 40.2253 }, "geometry": { "type": "Point", "coordinates": [ 40.2253, 36.6249 ] } },
{ "type": "Feature", "properties": { "field_1": 3197, "event_id_cnty": "SYR106101", "day": "29", "month": "9", "year": "2022", "location": "Fleifel", "latitude": 35.5888, "longitude": 36.4562 }, "geometry": { "type": "Point", "coordinates": [ 36.4562, 35.5888 ] } },
{ "type": "Feature", "properties": { "field_1": 3198, "event_id_cnty": "SYR106166", "day": "29", "month": "9", "year": "2022", "location": "Mayasa", "latitude": 36.397, "longitude": 36.9461 }, "geometry": { "type": "Point", "coordinates": [ 36.9461, 36.397 ] } },
{ "type": "Feature", "properties": { "field_1": 3199, "event_id_cnty": "SYR106168", "day": "29", "month": "9", "year": "2022", "location": "Zernait", "latitude": 36.4035, "longitude": 36.9538 }, "geometry": { "type": "Point", "coordinates": [ 36.9538, 36.4035 ] } },
{ "type": "Feature", "properties": { "field_1": 3200, "event_id_cnty": "SYR105996", "day": "29", "month": "9", "year": "2022", "location": "Qebtan al Jabal", "latitude": 36.2637, "longitude": 36.9487 }, "geometry": { "type": "Point", "coordinates": [ 36.9487, 36.2637 ] } },
{ "type": "Feature", "properties": { "field_1": 3201, "event_id_cnty": "SYR106167", "day": "29", "month": "9", "year": "2022", "location": "Qunaytirah Mountain", "latitude": 36.4169, "longitude": 36.9625 }, "geometry": { "type": "Point", "coordinates": [ 36.9625, 36.4169 ] } },
{ "type": "Feature", "properties": { "field_1": 3202, "event_id_cnty": "SYR106169", "day": "29", "month": "9", "year": "2022", "location": "Zur Maghar", "latitude": 36.8346, "longitude": 38.0347 }, "geometry": { "type": "Point", "coordinates": [ 38.0347, 36.8346 ] } },
{ "type": "Feature", "properties": { "field_1": 3203, "event_id_cnty": "SYR106128", "day": "29", "month": "9", "year": "2022", "location": "Sfuhen", "latitude": 35.6073, "longitude": 36.4645 }, "geometry": { "type": "Point", "coordinates": [ 36.4645, 35.6073 ] } },
{ "type": "Feature", "properties": { "field_1": 3204, "event_id_cnty": "SYR106144", "day": "29", "month": "9", "year": "2022", "location": "Nawa", "latitude": 32.8882, "longitude": 36.041 }, "geometry": { "type": "Point", "coordinates": [ 36.041, 32.8882 ] } },
{ "type": "Feature", "properties": { "field_1": 3205, "event_id_cnty": "SYR106095", "day": "29", "month": "9", "year": "2022", "location": "Bara", "latitude": 35.686, "longitude": 36.5424 }, "geometry": { "type": "Point", "coordinates": [ 36.5424, 35.686 ] } },
{ "type": "Feature", "properties": { "field_1": 3206, "event_id_cnty": "SYR106104", "day": "29", "month": "9", "year": "2022", "location": "Ftireh", "latitude": 35.6097, "longitude": 36.4853 }, "geometry": { "type": "Point", "coordinates": [ 36.4853, 35.6097 ] } },
{ "type": "Feature", "properties": { "field_1": 3207, "event_id_cnty": "TUR27220", "day": "29", "month": "9", "year": "2022", "location": "Tuzla", "latitude": 40.8299, "longitude": 29.3048 }, "geometry": { "type": "Point", "coordinates": [ 29.3048, 40.8299 ] } },
{ "type": "Feature", "properties": { "field_1": 3208, "event_id_cnty": "SYR106021", "day": "29", "month": "9", "year": "2022", "location": "Sidnaya Military Prison", "latitude": 33.6653, "longitude": 36.329 }, "geometry": { "type": "Point", "coordinates": [ 36.329, 33.6653 ] } },
{ "type": "Feature", "properties": { "field_1": 3209, "event_id_cnty": "SYR106083", "day": "29", "month": "9", "year": "2022", "location": "Al Wasta", "latitude": 36.1107, "longitude": 36.8401 }, "geometry": { "type": "Point", "coordinates": [ 36.8401, 36.1107 ] } },
{ "type": "Feature", "properties": { "field_1": 3210, "event_id_cnty": "SYR106026", "day": "29", "month": "9", "year": "2022", "location": "Ras al-Ain", "latitude": 36.8494, "longitude": 40.0747 }, "geometry": { "type": "Point", "coordinates": [ 40.0747, 36.8494 ] } },
{ "type": "Feature", "properties": { "field_1": 3211, "event_id_cnty": "SYR106155", "day": "29", "month": "9", "year": "2022", "location": "Tassil", "latitude": 32.8355, "longitude": 35.9718 }, "geometry": { "type": "Point", "coordinates": [ 35.9718, 32.8355 ] } },
{ "type": "Feature", "properties": { "field_1": 3212, "event_id_cnty": "SYR105999", "day": "28", "month": "9", "year": "2022", "location": "Zghir Jazireh", "latitude": 35.5073, "longitude": 39.9951 }, "geometry": { "type": "Point", "coordinates": [ 39.9951, 35.5073 ] } },
{ "type": "Feature", "properties": { "field_1": 3213, "event_id_cnty": "SYR106070", "day": "28", "month": "9", "year": "2022", "location": "Deir Sunbul", "latitude": 35.6993, "longitude": 36.6055 }, "geometry": { "type": "Point", "coordinates": [ 36.6055, 35.6993 ] } },
{ "type": "Feature", "properties": { "field_1": 3214, "event_id_cnty": "SYR106107", "day": "28", "month": "9", "year": "2022", "location": "Kafir", "latitude": 35.7833, "longitude": 36.3221 }, "geometry": { "type": "Point", "coordinates": [ 36.3221, 35.7833 ] } },
{ "type": "Feature", "properties": { "field_1": 3215, "event_id_cnty": "SYR106140", "day": "28", "month": "9", "year": "2022", "location": "Bogeleyyah", "latitude": 35.3805, "longitude": 40.0869 }, "geometry": { "type": "Point", "coordinates": [ 40.0869, 35.3805 ] } },
{ "type": "Feature", "properties": { "field_1": 3216, "event_id_cnty": "SYR106143", "day": "28", "month": "9", "year": "2022", "location": "Jneineh", "latitude": 35.3665, "longitude": 40.1196 }, "geometry": { "type": "Point", "coordinates": [ 40.1196, 35.3665 ] } },
{ "type": "Feature", "properties": { "field_1": 3217, "event_id_cnty": "SYR106199", "day": "28", "month": "9", "year": "2022", "location": "Nawa", "latitude": 32.8882, "longitude": 36.041 }, "geometry": { "type": "Point", "coordinates": [ 36.041, 32.8882 ] } },
{ "type": "Feature", "properties": { "field_1": 3218, "event_id_cnty": "SYR106197", "day": "28", "month": "9", "year": "2022", "location": "Tal Barod", "latitude": 36.4166, "longitude": 40.6608 }, "geometry": { "type": "Point", "coordinates": [ 40.6608, 36.4166 ] } },
{ "type": "Feature", "properties": { "field_1": 3219, "event_id_cnty": "SYR106191", "day": "28", "month": "9", "year": "2022", "location": "Qasemiyeh", "latitude": 36.7059, "longitude": 40.3406 }, "geometry": { "type": "Point", "coordinates": [ 40.3406, 36.7059 ] } },
{ "type": "Feature", "properties": { "field_1": 3220, "event_id_cnty": "SYR106011", "day": "28", "month": "9", "year": "2022", "location": "Aleppo - Sheikh Maqsoud", "latitude": 36.2368, "longitude": 37.1517 }, "geometry": { "type": "Point", "coordinates": [ 37.1517, 36.2368 ] } },
{ "type": "Feature", "properties": { "field_1": 3221, "event_id_cnty": "SYR106192", "day": "28", "month": "9", "year": "2022", "location": "Tal Tamer", "latitude": 36.6534, "longitude": 40.3718 }, "geometry": { "type": "Point", "coordinates": [ 40.3718, 36.6534 ] } },
{ "type": "Feature", "properties": { "field_1": 3222, "event_id_cnty": "SYR106182", "day": "28", "month": "9", "year": "2022", "location": "Hazarin", "latitude": 35.5998, "longitude": 36.5267 }, "geometry": { "type": "Point", "coordinates": [ 36.5267, 35.5998 ] } },
{ "type": "Feature", "properties": { "field_1": 3223, "event_id_cnty": "SYR106094", "day": "28", "month": "9", "year": "2022", "location": "Bara", "latitude": 35.686, "longitude": 36.5424 }, "geometry": { "type": "Point", "coordinates": [ 36.5424, 35.686 ] } },
{ "type": "Feature", "properties": { "field_1": 3224, "event_id_cnty": "SYR106121", "day": "28", "month": "9", "year": "2022", "location": "Maaret Al Naasan", "latitude": 36.0351, "longitude": 36.8376 }, "geometry": { "type": "Point", "coordinates": [ 36.8376, 36.0351 ] } },
{ "type": "Feature", "properties": { "field_1": 3225, "event_id_cnty": "SYR106131", "day": "28", "month": "9", "year": "2022", "location": "Teftnaz", "latitude": 35.9977, "longitude": 36.7833 }, "geometry": { "type": "Point", "coordinates": [ 36.7833, 35.9977 ] } },
{ "type": "Feature", "properties": { "field_1": 3226, "event_id_cnty": "SYR106117", "day": "28", "month": "9", "year": "2022", "location": "Kansafra", "latitude": 35.6599, "longitude": 36.4849 }, "geometry": { "type": "Point", "coordinates": [ 36.4849, 35.6599 ] } },
{ "type": "Feature", "properties": { "field_1": 3227, "event_id_cnty": "SYR106059", "day": "28", "month": "9", "year": "2022", "location": "Qasemiyeh", "latitude": 36.7059, "longitude": 40.3406 }, "geometry": { "type": "Point", "coordinates": [ 40.3406, 36.7059 ] } },
{ "type": "Feature", "properties": { "field_1": 3228, "event_id_cnty": "SYR105995", "day": "28", "month": "9", "year": "2022", "location": "Kafr Nobol", "latitude": 35.6147, "longitude": 36.5603 }, "geometry": { "type": "Point", "coordinates": [ 36.5603, 35.6147 ] } },
{ "type": "Feature", "properties": { "field_1": 3229, "event_id_cnty": "SYR106014", "day": "28", "month": "9", "year": "2022", "location": "Qebtan al Jabal", "latitude": 36.2637, "longitude": 36.9487 }, "geometry": { "type": "Point", "coordinates": [ 36.9487, 36.2637 ] } },
{ "type": "Feature", "properties": { "field_1": 3230, "event_id_cnty": "SYR106050", "day": "28", "month": "9", "year": "2022", "location": "Ghadir al Bostan", "latitude": 32.9192, "longitude": 35.9218 }, "geometry": { "type": "Point", "coordinates": [ 35.9218, 32.9192 ] } },
{ "type": "Feature", "properties": { "field_1": 3231, "event_id_cnty": "SYR105994", "day": "28", "month": "9", "year": "2022", "location": "Kabani", "latitude": 35.7187, "longitude": 36.2331 }, "geometry": { "type": "Point", "coordinates": [ 36.2331, 35.7187 ] } },
{ "type": "Feature", "properties": { "field_1": 3232, "event_id_cnty": "TUR27384", "day": "28", "month": "9", "year": "2022", "location": "Bagok Mountain", "latitude": 37.1687, "longitude": 41.4041 }, "geometry": { "type": "Point", "coordinates": [ 41.4041, 37.1687 ] } },
{ "type": "Feature", "properties": { "field_1": 3233, "event_id_cnty": "SYR107080", "day": "28", "month": "9", "year": "2022", "location": "Hreiji", "latitude": 35.3851, "longitude": 40.6149 }, "geometry": { "type": "Point", "coordinates": [ 40.6149, 35.3851 ] } },
{ "type": "Feature", "properties": { "field_1": 3234, "event_id_cnty": "SYR105985", "day": "28", "month": "9", "year": "2022", "location": "Al-Rasafah", "latitude": 35.6288, "longitude": 38.7581 }, "geometry": { "type": "Point", "coordinates": [ 38.7581, 35.6288 ] } },
{ "type": "Feature", "properties": { "field_1": 3235, "event_id_cnty": "SYR106077", "day": "27", "month": "9", "year": "2022", "location": "Al Hallubah", "latitude": 35.6127, "longitude": 36.419 }, "geometry": { "type": "Point", "coordinates": [ 36.419, 35.6127 ] } },
{ "type": "Feature", "properties": { "field_1": 3236, "event_id_cnty": "SYR106100", "day": "27", "month": "9", "year": "2022", "location": "Fleifel", "latitude": 35.5888, "longitude": 36.4562 }, "geometry": { "type": "Point", "coordinates": [ 36.4562, 35.5888 ] } },
{ "type": "Feature", "properties": { "field_1": 3237, "event_id_cnty": "SYR106157", "day": "27", "month": "9", "year": "2022", "location": "Dar'a", "latitude": 32.6241, "longitude": 36.1049 }, "geometry": { "type": "Point", "coordinates": [ 36.1049, 32.6241 ] } },
{ "type": "Feature", "properties": { "field_1": 3238, "event_id_cnty": "SYR106055", "day": "27", "month": "9", "year": "2022", "location": "Al Tabqa - Airbase", "latitude": 35.7591, "longitude": 38.5706 }, "geometry": { "type": "Point", "coordinates": [ 38.5706, 35.7591 ] } },
{ "type": "Feature", "properties": { "field_1": 3239, "event_id_cnty": "SYR106188", "day": "27", "month": "9", "year": "2022", "location": "Shat-ha", "latitude": 35.4991, "longitude": 36.2473 }, "geometry": { "type": "Point", "coordinates": [ 36.2473, 35.4991 ] } },
{ "type": "Feature", "properties": { "field_1": 3240, "event_id_cnty": "SYR106087", "day": "27", "month": "9", "year": "2022", "location": "Bahfis", "latitude": 36.1838, "longitude": 36.9063 }, "geometry": { "type": "Point", "coordinates": [ 36.9063, 36.1838 ] } },
{ "type": "Feature", "properties": { "field_1": 3241, "event_id_cnty": "SYR106186", "day": "27", "month": "9", "year": "2022", "location": "Regiment 46 - Military Base", "latitude": 36.1239, "longitude": 36.888 }, "geometry": { "type": "Point", "coordinates": [ 36.888, 36.1239 ] } },
{ "type": "Feature", "properties": { "field_1": 3242, "event_id_cnty": "SYR106189", "day": "27", "month": "9", "year": "2022", "location": "Sheikh Aqeel", "latitude": 36.3692, "longitude": 37.5063 }, "geometry": { "type": "Point", "coordinates": [ 37.5063, 36.3692 ] } },
{ "type": "Feature", "properties": { "field_1": 3243, "event_id_cnty": "SYR106190", "day": "27", "month": "9", "year": "2022", "location": "Tallat Abu Ali", "latitude": 35.7796, "longitude": 35.9613 }, "geometry": { "type": "Point", "coordinates": [ 35.9613, 35.7796 ] } },
{ "type": "Feature", "properties": { "field_1": 3244, "event_id_cnty": "SYR106009", "day": "27", "month": "9", "year": "2022", "location": "Deir Khabiyeh", "latitude": 33.3636, "longitude": 36.1604 }, "geometry": { "type": "Point", "coordinates": [ 36.1604, 33.3636 ] } },
{ "type": "Feature", "properties": { "field_1": 3245, "event_id_cnty": "SYR106174", "day": "27", "month": "9", "year": "2022", "location": "Abu Rasin", "latitude": 36.8465, "longitude": 40.3284 }, "geometry": { "type": "Point", "coordinates": [ 40.3284, 36.8465 ] } },
{ "type": "Feature", "properties": { "field_1": 3246, "event_id_cnty": "SYR106060", "day": "27", "month": "9", "year": "2022", "location": "Qasemiyeh", "latitude": 36.7059, "longitude": 40.3406 }, "geometry": { "type": "Point", "coordinates": [ 40.3406, 36.7059 ] } },
{ "type": "Feature", "properties": { "field_1": 3247, "event_id_cnty": "SYR106114", "day": "27", "month": "9", "year": "2022", "location": "Kafr Oweid", "latitude": 35.6282, "longitude": 36.4575 }, "geometry": { "type": "Point", "coordinates": [ 36.4575, 35.6282 ] } },
{ "type": "Feature", "properties": { "field_1": 3248, "event_id_cnty": "SYR106193", "day": "27", "month": "9", "year": "2022", "location": "Umm Ashba", "latitude": 36.8963, "longitude": 40.2951 }, "geometry": { "type": "Point", "coordinates": [ 40.2951, 36.8963 ] } },
{ "type": "Feature", "properties": { "field_1": 3249, "event_id_cnty": "SYR106097", "day": "27", "month": "9", "year": "2022", "location": "Daret Azza", "latitude": 36.285, "longitude": 36.8511 }, "geometry": { "type": "Point", "coordinates": [ 36.8511, 36.285 ] } },
{ "type": "Feature", "properties": { "field_1": 3250, "event_id_cnty": "SYR105974", "day": "27", "month": "9", "year": "2022", "location": "Jandairis", "latitude": 36.3925, "longitude": 36.6896 }, "geometry": { "type": "Point", "coordinates": [ 36.6896, 36.3925 ] } },
{ "type": "Feature", "properties": { "field_1": 3251, "event_id_cnty": "SYR106016", "day": "27", "month": "9", "year": "2022", "location": "Jandairis", "latitude": 36.3925, "longitude": 36.6896 }, "geometry": { "type": "Point", "coordinates": [ 36.6896, 36.3925 ] } },
{ "type": "Feature", "properties": { "field_1": 3252, "event_id_cnty": "SYR106109", "day": "27", "month": "9", "year": "2022", "location": "Kafr Amma", "latitude": 36.1409, "longitude": 36.8735 }, "geometry": { "type": "Point", "coordinates": [ 36.8735, 36.1409 ] } },
{ "type": "Feature", "properties": { "field_1": 3253, "event_id_cnty": "SYR106010", "day": "27", "month": "9", "year": "2022", "location": "Deir-ez-Zor - Al-Qosor", "latitude": 35.3379, "longitude": 40.1268 }, "geometry": { "type": "Point", "coordinates": [ 40.1268, 35.3379 ] } },
{ "type": "Feature", "properties": { "field_1": 3254, "event_id_cnty": "SYR106115", "day": "27", "month": "9", "year": "2022", "location": "Kafr Taal", "latitude": 36.1542, "longitude": 36.8935 }, "geometry": { "type": "Point", "coordinates": [ 36.8935, 36.1542 ] } },
{ "type": "Feature", "properties": { "field_1": 3255, "event_id_cnty": "SYR106093", "day": "27", "month": "9", "year": "2022", "location": "Bara", "latitude": 35.686, "longitude": 36.5424 }, "geometry": { "type": "Point", "coordinates": [ 36.5424, 35.686 ] } },
{ "type": "Feature", "properties": { "field_1": 3256, "event_id_cnty": "SYR106103", "day": "27", "month": "9", "year": "2022", "location": "Ftireh", "latitude": 35.6097, "longitude": 36.4853 }, "geometry": { "type": "Point", "coordinates": [ 36.4853, 35.6097 ] } },
{ "type": "Feature", "properties": { "field_1": 3257, "event_id_cnty": "SYR106116", "day": "27", "month": "9", "year": "2022", "location": "Kansafra", "latitude": 35.6599, "longitude": 36.4849 }, "geometry": { "type": "Point", "coordinates": [ 36.4849, 35.6599 ] } },
{ "type": "Feature", "properties": { "field_1": 3258, "event_id_cnty": "SYR106088", "day": "27", "month": "9", "year": "2022", "location": "Banin", "latitude": 35.7097, "longitude": 36.6401 }, "geometry": { "type": "Point", "coordinates": [ 36.6401, 35.7097 ] } },
{ "type": "Feature", "properties": { "field_1": 3259, "event_id_cnty": "SYR106127", "day": "27", "month": "9", "year": "2022", "location": "Sfuhen", "latitude": 35.6073, "longitude": 36.4645 }, "geometry": { "type": "Point", "coordinates": [ 36.4645, 35.6073 ] } },
{ "type": "Feature", "properties": { "field_1": 3260, "event_id_cnty": "SYR106080", "day": "27", "month": "9", "year": "2022", "location": "Al-Qahera", "latitude": 35.6131, "longitude": 36.3625 }, "geometry": { "type": "Point", "coordinates": [ 36.3625, 35.6131 ] } },
{ "type": "Feature", "properties": { "field_1": 3261, "event_id_cnty": "SYR106047", "day": "27", "month": "9", "year": "2022", "location": "Tadmor", "latitude": 34.5656, "longitude": 38.2877 }, "geometry": { "type": "Point", "coordinates": [ 38.2877, 34.5656 ] } },
{ "type": "Feature", "properties": { "field_1": 3262, "event_id_cnty": "SYR106084", "day": "27", "month": "9", "year": "2022", "location": "Ankawi", "latitude": 35.5967, "longitude": 36.3877 }, "geometry": { "type": "Point", "coordinates": [ 36.3877, 35.5967 ] } },
{ "type": "Feature", "properties": { "field_1": 3263, "event_id_cnty": "SYR106171", "day": "27", "month": "9", "year": "2022", "location": "Msheirfeh Remo", "latitude": 36.6057, "longitude": 40.1223 }, "geometry": { "type": "Point", "coordinates": [ 40.1223, 36.6057 ] } },
{ "type": "Feature", "properties": { "field_1": 3264, "event_id_cnty": "TUR27312", "day": "27", "month": "9", "year": "2022", "location": "Judi Mountain", "latitude": 37.3694, "longitude": 42.3442 }, "geometry": { "type": "Point", "coordinates": [ 42.3442, 37.3694 ] } },
{ "type": "Feature", "properties": { "field_1": 3265, "event_id_cnty": "SYR106082", "day": "27", "month": "9", "year": "2022", "location": "Al Wasta", "latitude": 36.1107, "longitude": 36.8401 }, "geometry": { "type": "Point", "coordinates": [ 36.8401, 36.1107 ] } },
{ "type": "Feature", "properties": { "field_1": 3266, "event_id_cnty": "SYR106170", "day": "27", "month": "9", "year": "2022", "location": "Al Assadiyah", "latitude": 36.9291, "longitude": 40.3479 }, "geometry": { "type": "Point", "coordinates": [ 40.3479, 36.9291 ] } },
{ "type": "Feature", "properties": { "field_1": 3267, "event_id_cnty": "SYR106124", "day": "27", "month": "9", "year": "2022", "location": "Kafr Noran", "latitude": 36.078, "longitude": 36.8322 }, "geometry": { "type": "Point", "coordinates": [ 36.8322, 36.078 ] } },
{ "type": "Feature", "properties": { "field_1": 3268, "event_id_cnty": "SYR106020", "day": "27", "month": "9", "year": "2022", "location": "Sidnaya Military Prison", "latitude": 33.6653, "longitude": 36.329 }, "geometry": { "type": "Point", "coordinates": [ 36.329, 33.6653 ] } },
{ "type": "Feature", "properties": { "field_1": 3269, "event_id_cnty": "SYR105981", "day": "27", "month": "9", "year": "2022", "location": "Sarmada", "latitude": 36.1866, "longitude": 36.7239 }, "geometry": { "type": "Point", "coordinates": [ 36.7239, 36.1866 ] } },
{ "type": "Feature", "properties": { "field_1": 3270, "event_id_cnty": "SYR105982", "day": "27", "month": "9", "year": "2022", "location": "Al-Bardakli", "latitude": 36.2131, "longitude": 36.732 }, "geometry": { "type": "Point", "coordinates": [ 36.732, 36.2131 ] } },
{ "type": "Feature", "properties": { "field_1": 3271, "event_id_cnty": "SYR105986", "day": "27", "month": "9", "year": "2022", "location": "Kafr Lusin", "latitude": 36.2555, "longitude": 36.7148 }, "geometry": { "type": "Point", "coordinates": [ 36.7148, 36.2555 ] } },
{ "type": "Feature", "properties": { "field_1": 3272, "event_id_cnty": "SYR105987", "day": "27", "month": "9", "year": "2022", "location": "Atareb", "latitude": 36.1379, "longitude": 36.8284 }, "geometry": { "type": "Point", "coordinates": [ 36.8284, 36.1379 ] } },
{ "type": "Feature", "properties": { "field_1": 3273, "event_id_cnty": "SYR105988", "day": "27", "month": "9", "year": "2022", "location": "Maaret Al Naasan", "latitude": 36.0351, "longitude": 36.8376 }, "geometry": { "type": "Point", "coordinates": [ 36.8376, 36.0351 ] } },
{ "type": "Feature", "properties": { "field_1": 3274, "event_id_cnty": "SYR106139", "day": "27", "month": "9", "year": "2022", "location": "Al-Maabdaa", "latitude": 37.0214, "longitude": 41.9609 }, "geometry": { "type": "Point", "coordinates": [ 41.9609, 37.0214 ] } },
{ "type": "Feature", "properties": { "field_1": 3275, "event_id_cnty": "SYR106137", "day": "27", "month": "9", "year": "2022", "location": "Teftnaz", "latitude": 35.9977, "longitude": 36.7833 }, "geometry": { "type": "Point", "coordinates": [ 36.7833, 35.9977 ] } },
{ "type": "Feature", "properties": { "field_1": 3276, "event_id_cnty": "SYR105984", "day": "27", "month": "9", "year": "2022", "location": "Al-Rasafah", "latitude": 35.6288, "longitude": 38.7581 }, "geometry": { "type": "Point", "coordinates": [ 38.7581, 35.6288 ] } },
{ "type": "Feature", "properties": { "field_1": 3277, "event_id_cnty": "SYR105990", "day": "27", "month": "9", "year": "2022", "location": "Bab El Hawa", "latitude": 36.2308, "longitude": 36.692 }, "geometry": { "type": "Point", "coordinates": [ 36.692, 36.2308 ] } },
{ "type": "Feature", "properties": { "field_1": 3278, "event_id_cnty": "SYR106154", "day": "27", "month": "9", "year": "2022", "location": "Mseifra", "latitude": 32.6321, "longitude": 36.3393 }, "geometry": { "type": "Point", "coordinates": [ 36.3393, 32.6321 ] } },
{ "type": "Feature", "properties": { "field_1": 3279, "event_id_cnty": "SYR106056", "day": "26", "month": "9", "year": "2022", "location": "Al-Na'ema", "latitude": 32.6334, "longitude": 36.1616 }, "geometry": { "type": "Point", "coordinates": [ 36.1616, 32.6334 ] } },
{ "type": "Feature", "properties": { "field_1": 3280, "event_id_cnty": "SYR106076", "day": "26", "month": "9", "year": "2022", "location": "Mare'", "latitude": 36.4827, "longitude": 37.1965 }, "geometry": { "type": "Point", "coordinates": [ 37.1965, 36.4827 ] } },
{ "type": "Feature", "properties": { "field_1": 3281, "event_id_cnty": "SYR106134", "day": "26", "month": "9", "year": "2022", "location": "Sheikh Isa", "latitude": 36.4793, "longitude": 37.1467 }, "geometry": { "type": "Point", "coordinates": [ 37.1467, 36.4793 ] } },
{ "type": "Feature", "properties": { "field_1": 3282, "event_id_cnty": "SYR106142", "day": "26", "month": "9", "year": "2022", "location": "Ar-Raqqa", "latitude": 35.9428, "longitude": 39.0519 }, "geometry": { "type": "Point", "coordinates": [ 39.0519, 35.9428 ] } },
{ "type": "Feature", "properties": { "field_1": 3283, "event_id_cnty": "SYR106148", "day": "26", "month": "9", "year": "2022", "location": "Gharz", "latitude": 32.5997, "longitude": 36.1598 }, "geometry": { "type": "Point", "coordinates": [ 36.1598, 32.5997 ] } },
{ "type": "Feature", "properties": { "field_1": 3284, "event_id_cnty": "SYR106200", "day": "26", "month": "9", "year": "2022", "location": "Burj Haydar", "latitude": 36.343, "longitude": 36.9029 }, "geometry": { "type": "Point", "coordinates": [ 36.9029, 36.343 ] } },
{ "type": "Feature", "properties": { "field_1": 3285, "event_id_cnty": "SYR105977", "day": "26", "month": "9", "year": "2022", "location": "Quamishli", "latitude": 37.0447, "longitude": 41.2262 }, "geometry": { "type": "Point", "coordinates": [ 41.2262, 37.0447 ] } },
{ "type": "Feature", "properties": { "field_1": 3286, "event_id_cnty": "SYR106013", "day": "26", "month": "9", "year": "2022", "location": "Ein Issa", "latitude": 36.3837, "longitude": 38.8628 }, "geometry": { "type": "Point", "coordinates": [ 38.8628, 36.3837 ] } },
{ "type": "Feature", "properties": { "field_1": 3287, "event_id_cnty": "SYR106129", "day": "26", "month": "9", "year": "2022", "location": "Taqad", "latitude": 36.1987, "longitude": 36.8698 }, "geometry": { "type": "Point", "coordinates": [ 36.8698, 36.1987 ] } },
{ "type": "Feature", "properties": { "field_1": 3288, "event_id_cnty": "SYR106183", "day": "26", "month": "9", "year": "2022", "location": "Kansaba", "latitude": 35.7439, "longitude": 36.1636 }, "geometry": { "type": "Point", "coordinates": [ 36.1636, 35.7439 ] } },
{ "type": "Feature", "properties": { "field_1": 3289, "event_id_cnty": "SYR106185", "day": "26", "month": "9", "year": "2022", "location": "Regiment 46 - Military Base", "latitude": 36.1239, "longitude": 36.888 }, "geometry": { "type": "Point", "coordinates": [ 36.888, 36.1239 ] } },
{ "type": "Feature", "properties": { "field_1": 3290, "event_id_cnty": "SYR106008", "day": "26", "month": "9", "year": "2022", "location": "Atareb", "latitude": 36.1379, "longitude": 36.8284 }, "geometry": { "type": "Point", "coordinates": [ 36.8284, 36.1379 ] } },
{ "type": "Feature", "properties": { "field_1": 3291, "event_id_cnty": "SYR106092", "day": "26", "month": "9", "year": "2022", "location": "Bara", "latitude": 35.686, "longitude": 36.5424 }, "geometry": { "type": "Point", "coordinates": [ 36.5424, 35.686 ] } },
{ "type": "Feature", "properties": { "field_1": 3292, "event_id_cnty": "SYR106184", "day": "26", "month": "9", "year": "2022", "location": "Qal'at Shalaf", "latitude": 35.7312, "longitude": 36.1744 }, "geometry": { "type": "Point", "coordinates": [ 36.1744, 35.7312 ] } },
{ "type": "Feature", "properties": { "field_1": 3293, "event_id_cnty": "SYR106108", "day": "26", "month": "9", "year": "2022", "location": "Kafr Amma", "latitude": 36.1409, "longitude": 36.8735 }, "geometry": { "type": "Point", "coordinates": [ 36.8735, 36.1409 ] } },
{ "type": "Feature", "properties": { "field_1": 3294, "event_id_cnty": "SYR106172", "day": "26", "month": "9", "year": "2022", "location": "Abu Rasin", "latitude": 36.8465, "longitude": 40.3284 }, "geometry": { "type": "Point", "coordinates": [ 40.3284, 36.8465 ] } },
{ "type": "Feature", "properties": { "field_1": 3295, "event_id_cnty": "SYR106179", "day": "26", "month": "9", "year": "2022", "location": "Abu Rasin", "latitude": 36.8465, "longitude": 40.3284 }, "geometry": { "type": "Point", "coordinates": [ 40.3284, 36.8465 ] } },
{ "type": "Feature", "properties": { "field_1": 3296, "event_id_cnty": "SYR106180", "day": "26", "month": "9", "year": "2022", "location": "Dada Abdal", "latitude": 36.8908, "longitude": 40.3375 }, "geometry": { "type": "Point", "coordinates": [ 40.3375, 36.8908 ] } },
{ "type": "Feature", "properties": { "field_1": 3297, "event_id_cnty": "SYR106178", "day": "26", "month": "9", "year": "2022", "location": "Tal Tamer", "latitude": 36.6534, "longitude": 40.3718 }, "geometry": { "type": "Point", "coordinates": [ 40.3718, 36.6534 ] } },
{ "type": "Feature", "properties": { "field_1": 3298, "event_id_cnty": "SYR105972", "day": "26", "month": "9", "year": "2022", "location": "Al Bab", "latitude": 36.3697, "longitude": 37.5149 }, "geometry": { "type": "Point", "coordinates": [ 37.5149, 36.3697 ] } },
{ "type": "Feature", "properties": { "field_1": 3299, "event_id_cnty": "SYR106062", "day": "26", "month": "9", "year": "2022", "location": "Atareb", "latitude": 36.1379, "longitude": 36.8284 }, "geometry": { "type": "Point", "coordinates": [ 36.8284, 36.1379 ] } },
{ "type": "Feature", "properties": { "field_1": 3300, "event_id_cnty": "SYR106106", "day": "26", "month": "9", "year": "2022", "location": "Kabani", "latitude": 35.7187, "longitude": 36.2331 }, "geometry": { "type": "Point", "coordinates": [ 36.2331, 35.7187 ] } },
{ "type": "Feature", "properties": { "field_1": 3301, "event_id_cnty": "SYR106141", "day": "26", "month": "9", "year": "2022", "location": "Karama", "latitude": 35.8699, "longitude": 39.2813 }, "geometry": { "type": "Point", "coordinates": [ 39.2813, 35.8699 ] } },
{ "type": "Feature", "properties": { "field_1": 3302, "event_id_cnty": "SYR106007", "day": "26", "month": "9", "year": "2022", "location": "Kabashin", "latitude": 36.3323, "longitude": 36.9175 }, "geometry": { "type": "Point", "coordinates": [ 36.9175, 36.3323 ] } },
{ "type": "Feature", "properties": { "field_1": 3303, "event_id_cnty": "SYR106006", "day": "26", "month": "9", "year": "2022", "location": "Al Ghab Plain", "latitude": 35.5604, "longitude": 36.3442 }, "geometry": { "type": "Point", "coordinates": [ 36.3442, 35.5604 ] } },
{ "type": "Feature", "properties": { "field_1": 3304, "event_id_cnty": "SYR106068", "day": "26", "month": "9", "year": "2022", "location": "Milaja", "latitude": 35.5927, "longitude": 36.4944 }, "geometry": { "type": "Point", "coordinates": [ 36.4944, 35.5927 ] } },
{ "type": "Feature", "properties": { "field_1": 3305, "event_id_cnty": "SYR106064", "day": "26", "month": "9", "year": "2022", "location": "Dadikh", "latitude": 35.802, "longitude": 36.7336 }, "geometry": { "type": "Point", "coordinates": [ 36.7336, 35.802 ] } },
{ "type": "Feature", "properties": { "field_1": 3306, "event_id_cnty": "SYR106066", "day": "26", "month": "9", "year": "2022", "location": "Kasab", "latitude": 35.927, "longitude": 35.9891 }, "geometry": { "type": "Point", "coordinates": [ 35.9891, 35.927 ] } },
{ "type": "Feature", "properties": { "field_1": 3307, "event_id_cnty": "SYR106018", "day": "26", "month": "9", "year": "2022", "location": "Kherbet Al Ward", "latitude": 33.398, "longitude": 36.3703 }, "geometry": { "type": "Point", "coordinates": [ 36.3703, 33.398 ] } },
{ "type": "Feature", "properties": { "field_1": 3308, "event_id_cnty": "SYR106067", "day": "26", "month": "9", "year": "2022", "location": "Dar Al-Kabira", "latitude": 35.6068, "longitude": 36.5168 }, "geometry": { "type": "Point", "coordinates": [ 36.5168, 35.6068 ] } },
{ "type": "Feature", "properties": { "field_1": 3309, "event_id_cnty": "TUR27138", "day": "26", "month": "9", "year": "2022", "location": "Mezitli", "latitude": 36.894, "longitude": 34.4299 }, "geometry": { "type": "Point", "coordinates": [ 34.4299, 36.894 ] } },
{ "type": "Feature", "properties": { "field_1": 3310, "event_id_cnty": "SYR106123", "day": "26", "month": "9", "year": "2022", "location": "Kafr Noran", "latitude": 36.078, "longitude": 36.8322 }, "geometry": { "type": "Point", "coordinates": [ 36.8322, 36.078 ] } },
{ "type": "Feature", "properties": { "field_1": 3311, "event_id_cnty": "SYR106081", "day": "26", "month": "9", "year": "2022", "location": "Al Wasta", "latitude": 36.1107, "longitude": 36.8401 }, "geometry": { "type": "Point", "coordinates": [ 36.8401, 36.1107 ] } },
{ "type": "Feature", "properties": { "field_1": 3312, "event_id_cnty": "SYR106177", "day": "26", "month": "9", "year": "2022", "location": "Dardara Tal Tamer", "latitude": 36.6996, "longitude": 40.4029 }, "geometry": { "type": "Point", "coordinates": [ 40.4029, 36.6996 ] } },
{ "type": "Feature", "properties": { "field_1": 3313, "event_id_cnty": "SYR106156", "day": "26", "month": "9", "year": "2022", "location": "Hrak", "latitude": 32.7507, "longitude": 36.304 }, "geometry": { "type": "Point", "coordinates": [ 36.304, 32.7507 ] } },
{ "type": "Feature", "properties": { "field_1": 3314, "event_id_cnty": "SYR106138", "day": "26", "month": "9", "year": "2022", "location": "Ain al Arab", "latitude": 36.8891, "longitude": 38.3521 }, "geometry": { "type": "Point", "coordinates": [ 38.3521, 36.8891 ] } },
{ "type": "Feature", "properties": { "field_1": 3315, "event_id_cnty": "SYR106065", "day": "26", "month": "9", "year": "2022", "location": "Jabal al-Turkman", "latitude": 35.8195, "longitude": 36.0022 }, "geometry": { "type": "Point", "coordinates": [ 36.0022, 35.8195 ] } },
{ "type": "Feature", "properties": { "field_1": 3316, "event_id_cnty": "SYR106005", "day": "25", "month": "9", "year": "2022", "location": "Ghuzaylah", "latitude": 36.5474, "longitude": 41.3117 }, "geometry": { "type": "Point", "coordinates": [ 41.3117, 36.5474 ] } },
{ "type": "Feature", "properties": { "field_1": 3317, "event_id_cnty": "SYR106019", "day": "25", "month": "9", "year": "2022", "location": "Nafeaa", "latitude": 32.8096, "longitude": 35.894 }, "geometry": { "type": "Point", "coordinates": [ 35.894, 32.8096 ] } },
{ "type": "Feature", "properties": { "field_1": 3318, "event_id_cnty": "SYR106048", "day": "25", "month": "9", "year": "2022", "location": "Rahjan", "latitude": 35.4066, "longitude": 37.4341 }, "geometry": { "type": "Point", "coordinates": [ 37.4341, 35.4066 ] } },
{ "type": "Feature", "properties": { "field_1": 3319, "event_id_cnty": "SYR106061", "day": "25", "month": "9", "year": "2022", "location": "Mseifra", "latitude": 32.6321, "longitude": 36.3393 }, "geometry": { "type": "Point", "coordinates": [ 36.3393, 32.6321 ] } },
{ "type": "Feature", "properties": { "field_1": 3320, "event_id_cnty": "SYR106063", "day": "25", "month": "9", "year": "2022", "location": "Barakeh", "latitude": 35.6744, "longitude": 36.2711 }, "geometry": { "type": "Point", "coordinates": [ 36.2711, 35.6744 ] } },
{ "type": "Feature", "properties": { "field_1": 3321, "event_id_cnty": "SYR106086", "day": "25", "month": "9", "year": "2022", "location": "Atareb", "latitude": 36.1379, "longitude": 36.8284 }, "geometry": { "type": "Point", "coordinates": [ 36.8284, 36.1379 ] } },
{ "type": "Feature", "properties": { "field_1": 3322, "event_id_cnty": "SYR106091", "day": "25", "month": "9", "year": "2022", "location": "Bara", "latitude": 35.686, "longitude": 36.5424 }, "geometry": { "type": "Point", "coordinates": [ 36.5424, 35.686 ] } },
{ "type": "Feature", "properties": { "field_1": 3323, "event_id_cnty": "SYR106113", "day": "25", "month": "9", "year": "2022", "location": "Kafr Noran", "latitude": 36.078, "longitude": 36.8322 }, "geometry": { "type": "Point", "coordinates": [ 36.8322, 36.078 ] } },
{ "type": "Feature", "properties": { "field_1": 3324, "event_id_cnty": "SYR106098", "day": "25", "month": "9", "year": "2022", "location": "Dweir Elakrad", "latitude": 35.7225, "longitude": 36.2602 }, "geometry": { "type": "Point", "coordinates": [ 36.2602, 35.7225 ] } },
{ "type": "Feature", "properties": { "field_1": 3325, "event_id_cnty": "SYR106102", "day": "25", "month": "9", "year": "2022", "location": "Ftireh", "latitude": 35.6097, "longitude": 36.4853 }, "geometry": { "type": "Point", "coordinates": [ 36.4853, 35.6097 ] } },
{ "type": "Feature", "properties": { "field_1": 3326, "event_id_cnty": "SYR106126", "day": "25", "month": "9", "year": "2022", "location": "Sfuhen", "latitude": 35.6073, "longitude": 36.4645 }, "geometry": { "type": "Point", "coordinates": [ 36.4645, 35.6073 ] } },
{ "type": "Feature", "properties": { "field_1": 3327, "event_id_cnty": "SYR106053", "day": "25", "month": "9", "year": "2022", "location": "Tall Ed-Daman", "latitude": 35.8075, "longitude": 37.2536 }, "geometry": { "type": "Point", "coordinates": [ 37.2536, 35.8075 ] } },
{ "type": "Feature", "properties": { "field_1": 3328, "event_id_cnty": "SYR105993", "day": "25", "month": "9", "year": "2022", "location": "Kabani", "latitude": 35.7187, "longitude": 36.2331 }, "geometry": { "type": "Point", "coordinates": [ 36.2331, 35.7187 ] } },
{ "type": "Feature", "properties": { "field_1": 3329, "event_id_cnty": "SYR106003", "day": "25", "month": "9", "year": "2022", "location": "Ithariyah", "latitude": 35.3652, "longitude": 37.7886 }, "geometry": { "type": "Point", "coordinates": [ 37.7886, 35.3652 ] } },
{ "type": "Feature", "properties": { "field_1": 3330, "event_id_cnty": "SYR106118", "day": "25", "month": "9", "year": "2022", "location": "Lower Amiqa", "latitude": 35.5731, "longitude": 36.3923 }, "geometry": { "type": "Point", "coordinates": [ 36.3923, 35.5731 ] } },
{ "type": "Feature", "properties": { "field_1": 3331, "event_id_cnty": "SYR106099", "day": "25", "month": "9", "year": "2022", "location": "Fleifel", "latitude": 35.5888, "longitude": 36.4562 }, "geometry": { "type": "Point", "coordinates": [ 36.4562, 35.5888 ] } },
{ "type": "Feature", "properties": { "field_1": 3332, "event_id_cnty": "SYR106120", "day": "25", "month": "9", "year": "2022", "location": "Maaret Al Naasan", "latitude": 36.0351, "longitude": 36.8376 }, "geometry": { "type": "Point", "coordinates": [ 36.8376, 36.0351 ] } },
{ "type": "Feature", "properties": { "field_1": 3333, "event_id_cnty": "SYR106072", "day": "25", "month": "9", "year": "2022", "location": "Blinta", "latitude": 36.2294, "longitude": 36.8851 }, "geometry": { "type": "Point", "coordinates": [ 36.8851, 36.2294 ] } },
{ "type": "Feature", "properties": { "field_1": 3334, "event_id_cnty": "SYR106145", "day": "25", "month": "9", "year": "2022", "location": "Da'el", "latitude": 32.7544, "longitude": 36.1311 }, "geometry": { "type": "Point", "coordinates": [ 36.1311, 32.7544 ] } },
{ "type": "Feature", "properties": { "field_1": 3335, "event_id_cnty": "SYR106105", "day": "25", "month": "9", "year": "2022", "location": "Jabal al-Turkman", "latitude": 35.8195, "longitude": 36.0022 }, "geometry": { "type": "Point", "coordinates": [ 36.0022, 35.8195 ] } },
{ "type": "Feature", "properties": { "field_1": 3336, "event_id_cnty": "SYR106153", "day": "25", "month": "9", "year": "2022", "location": "Al Fakhura", "latitude": 35.4952, "longitude": 36.0069 }, "geometry": { "type": "Point", "coordinates": [ 36.0069, 35.4952 ] } },
{ "type": "Feature", "properties": { "field_1": 3337, "event_id_cnty": "SYR106025", "day": "24", "month": "9", "year": "2022", "location": "Tokhar", "latitude": 36.6398, "longitude": 37.9812 }, "geometry": { "type": "Point", "coordinates": [ 37.9812, 36.6398 ] } },
{ "type": "Feature", "properties": { "field_1": 3338, "event_id_cnty": "SYR106051", "day": "24", "month": "9", "year": "2022", "location": "Tabiyet Jazira", "latitude": 35.2823, "longitude": 40.3177 }, "geometry": { "type": "Point", "coordinates": [ 40.3177, 35.2823 ] } },
{ "type": "Feature", "properties": { "field_1": 3339, "event_id_cnty": "SYR106069", "day": "24", "month": "9", "year": "2022", "location": "Kabashin", "latitude": 36.3323, "longitude": 36.9175 }, "geometry": { "type": "Point", "coordinates": [ 36.9175, 36.3323 ] } },
{ "type": "Feature", "properties": { "field_1": 3340, "event_id_cnty": "SYR106071", "day": "24", "month": "9", "year": "2022", "location": "Tadil", "latitude": 36.1647, "longitude": 36.888 }, "geometry": { "type": "Point", "coordinates": [ 36.888, 36.1647 ] } },
{ "type": "Feature", "properties": { "field_1": 3341, "event_id_cnty": "SYR106090", "day": "24", "month": "9", "year": "2022", "location": "Bara", "latitude": 35.686, "longitude": 36.5424 }, "geometry": { "type": "Point", "coordinates": [ 36.5424, 35.686 ] } },
{ "type": "Feature", "properties": { "field_1": 3342, "event_id_cnty": "SYR106112", "day": "24", "month": "9", "year": "2022", "location": "Kafr Noran", "latitude": 36.078, "longitude": 36.8322 }, "geometry": { "type": "Point", "coordinates": [ 36.8322, 36.078 ] } },
{ "type": "Feature", "properties": { "field_1": 3343, "event_id_cnty": "SYR106119", "day": "24", "month": "9", "year": "2022", "location": "Maaret Al Naasan", "latitude": 36.0351, "longitude": 36.8376 }, "geometry": { "type": "Point", "coordinates": [ 36.8376, 36.0351 ] } },
{ "type": "Feature", "properties": { "field_1": 3344, "event_id_cnty": "SYR105975", "day": "24", "month": "9", "year": "2022", "location": "Al-Kubar", "latitude": 35.7734, "longitude": 39.785 }, "geometry": { "type": "Point", "coordinates": [ 39.785, 35.7734 ] } },
{ "type": "Feature", "properties": { "field_1": 3345, "event_id_cnty": "SYR106041", "day": "24", "month": "9", "year": "2022", "location": "Sahm El Golan", "latitude": 32.7826, "longitude": 35.9354 }, "geometry": { "type": "Point", "coordinates": [ 35.9354, 32.7826 ] } },
{ "type": "Feature", "properties": { "field_1": 3346, "event_id_cnty": "SYR106130", "day": "24", "month": "9", "year": "2022", "location": "Teftnaz", "latitude": 35.9977, "longitude": 36.7833 }, "geometry": { "type": "Point", "coordinates": [ 36.7833, 35.9977 ] } },
{ "type": "Feature", "properties": { "field_1": 3347, "event_id_cnty": "SYR106028", "day": "24", "month": "9", "year": "2022", "location": "Bulbul", "latitude": 36.7697, "longitude": 36.8193 }, "geometry": { "type": "Point", "coordinates": [ 36.8193, 36.7697 ] } },
{ "type": "Feature", "properties": { "field_1": 3348, "event_id_cnty": "SYR105973", "day": "24", "month": "9", "year": "2022", "location": "Jandairis", "latitude": 36.3925, "longitude": 36.6896 }, "geometry": { "type": "Point", "coordinates": [ 36.6896, 36.3925 ] } },
{ "type": "Feature", "properties": { "field_1": 3349, "event_id_cnty": "SYR106015", "day": "24", "month": "9", "year": "2022", "location": "Jandairis", "latitude": 36.3925, "longitude": 36.6896 }, "geometry": { "type": "Point", "coordinates": [ 36.6896, 36.3925 ] } },
{ "type": "Feature", "properties": { "field_1": 3350, "event_id_cnty": "SYR106122", "day": "24", "month": "9", "year": "2022", "location": "Makbas", "latitude": 36.2461, "longitude": 36.8857 }, "geometry": { "type": "Point", "coordinates": [ 36.8857, 36.2461 ] } },
{ "type": "Feature", "properties": { "field_1": 3351, "event_id_cnty": "SYR105997", "day": "24", "month": "9", "year": "2022", "location": "Tanjarah", "latitude": 35.5869, "longitude": 36.3567 }, "geometry": { "type": "Point", "coordinates": [ 36.3567, 35.5869 ] } },
{ "type": "Feature", "properties": { "field_1": 3352, "event_id_cnty": "SYR106002", "day": "24", "month": "9", "year": "2022", "location": "Arak", "latitude": 34.6399, "longitude": 38.5692 }, "geometry": { "type": "Point", "coordinates": [ 38.5692, 34.6399 ] } },
{ "type": "Feature", "properties": { "field_1": 3353, "event_id_cnty": "SYR106147", "day": "24", "month": "9", "year": "2022", "location": "Duma", "latitude": 33.5706, "longitude": 36.4046 }, "geometry": { "type": "Point", "coordinates": [ 36.4046, 33.5706 ] } },
{ "type": "Feature", "properties": { "field_1": 3354, "event_id_cnty": "SYR106150", "day": "24", "month": "9", "year": "2022", "location": "Qalamoun", "latitude": 34.0686, "longitude": 36.5419 }, "geometry": { "type": "Point", "coordinates": [ 36.5419, 34.0686 ] } },
{ "type": "Feature", "properties": { "field_1": 3355, "event_id_cnty": "SYR106073", "day": "24", "month": "9", "year": "2022", "location": "Al Wasta", "latitude": 36.1107, "longitude": 36.8401 }, "geometry": { "type": "Point", "coordinates": [ 36.8401, 36.1107 ] } },
{ "type": "Feature", "properties": { "field_1": 3356, "event_id_cnty": "SYR106017", "day": "24", "month": "9", "year": "2022", "location": "Tayib Al-Fal", "latitude": 35.297, "longitude": 40.5624 }, "geometry": { "type": "Point", "coordinates": [ 40.5624, 35.297 ] } },
{ "type": "Feature", "properties": { "field_1": 3357, "event_id_cnty": "SYR106152", "day": "24", "month": "9", "year": "2022", "location": "Sayda", "latitude": 32.6286, "longitude": 36.2236 }, "geometry": { "type": "Point", "coordinates": [ 36.2236, 32.6286 ] } },
{ "type": "Feature", "properties": { "field_1": 3358, "event_id_cnty": "SYR105983", "day": "24", "month": "9", "year": "2022", "location": "Al-Rasafah", "latitude": 35.6288, "longitude": 38.7581 }, "geometry": { "type": "Point", "coordinates": [ 38.7581, 35.6288 ] } },
{ "type": "Feature", "properties": { "field_1": 3359, "event_id_cnty": "TUR27098", "day": "23", "month": "9", "year": "2022", "location": "Dereler", "latitude": 37.6073, "longitude": 42.7478 }, "geometry": { "type": "Point", "coordinates": [ 42.7478, 37.6073 ] } },
{ "type": "Feature", "properties": { "field_1": 3360, "event_id_cnty": "SYR105750", "day": "23", "month": "9", "year": "2022", "location": "Tadil", "latitude": 36.1647, "longitude": 36.888 }, "geometry": { "type": "Point", "coordinates": [ 36.888, 36.1647 ] } },
{ "type": "Feature", "properties": { "field_1": 3361, "event_id_cnty": "SYR105770", "day": "23", "month": "9", "year": "2022", "location": "Atareb", "latitude": 36.1379, "longitude": 36.8284 }, "geometry": { "type": "Point", "coordinates": [ 36.8284, 36.1379 ] } },
{ "type": "Feature", "properties": { "field_1": 3362, "event_id_cnty": "SYR105860", "day": "23", "month": "9", "year": "2022", "location": "Bara", "latitude": 35.686, "longitude": 36.5424 }, "geometry": { "type": "Point", "coordinates": [ 36.5424, 35.686 ] } },
{ "type": "Feature", "properties": { "field_1": 3363, "event_id_cnty": "SYR105868", "day": "23", "month": "9", "year": "2022", "location": "Makbas", "latitude": 36.2461, "longitude": 36.8857 }, "geometry": { "type": "Point", "coordinates": [ 36.8857, 36.2461 ] } },
{ "type": "Feature", "properties": { "field_1": 3364, "event_id_cnty": "SYR105914", "day": "23", "month": "9", "year": "2022", "location": "Kassar", "latitude": 36.0629, "longitude": 39.8023 }, "geometry": { "type": "Point", "coordinates": [ 39.8023, 36.0629 ] } },
{ "type": "Feature", "properties": { "field_1": 3365, "event_id_cnty": "SYR105867", "day": "23", "month": "9", "year": "2022", "location": "Maaret Al Naasan", "latitude": 36.0351, "longitude": 36.8376 }, "geometry": { "type": "Point", "coordinates": [ 36.8376, 36.0351 ] } },
{ "type": "Feature", "properties": { "field_1": 3366, "event_id_cnty": "SYR105863", "day": "23", "month": "9", "year": "2022", "location": "Kafr Amma", "latitude": 36.1409, "longitude": 36.8735 }, "geometry": { "type": "Point", "coordinates": [ 36.8735, 36.1409 ] } },
{ "type": "Feature", "properties": { "field_1": 3367, "event_id_cnty": "SYR105861", "day": "23", "month": "9", "year": "2022", "location": "Blinta", "latitude": 36.2294, "longitude": 36.8851 }, "geometry": { "type": "Point", "coordinates": [ 36.8851, 36.2294 ] } },
{ "type": "Feature", "properties": { "field_1": 3368, "event_id_cnty": "SYR105913", "day": "23", "month": "9", "year": "2022", "location": "Al-Jalaa", "latitude": 36.0652, "longitude": 38.906 }, "geometry": { "type": "Point", "coordinates": [ 38.906, 36.0652 ] } },
{ "type": "Feature", "properties": { "field_1": 3369, "event_id_cnty": "SYR105829", "day": "23", "month": "9", "year": "2022", "location": "Kherbet Eljoz", "latitude": 35.9031, "longitude": 36.191 }, "geometry": { "type": "Point", "coordinates": [ 36.191, 35.9031 ] } },
{ "type": "Feature", "properties": { "field_1": 3370, "event_id_cnty": "SYR105803", "day": "23", "month": "9", "year": "2022", "location": "Al-Kubar", "latitude": 35.7734, "longitude": 39.785 }, "geometry": { "type": "Point", "coordinates": [ 39.785, 35.7734 ] } },
{ "type": "Feature", "properties": { "field_1": 3371, "event_id_cnty": "SYR105992", "day": "23", "month": "9", "year": "2022", "location": "Jadraya", "latitude": 35.7236, "longitude": 36.43 }, "geometry": { "type": "Point", "coordinates": [ 36.43, 35.7236 ] } },
{ "type": "Feature", "properties": { "field_1": 3372, "event_id_cnty": "SYR105979", "day": "23", "month": "9", "year": "2022", "location": "Zir", "latitude": 35.1248, "longitude": 40.4346 }, "geometry": { "type": "Point", "coordinates": [ 40.4346, 35.1248 ] } },
{ "type": "Feature", "properties": { "field_1": 3373, "event_id_cnty": "SYR105978", "day": "23", "month": "9", "year": "2022", "location": "Takihi", "latitude": 35.1751, "longitude": 40.4547 }, "geometry": { "type": "Point", "coordinates": [ 40.4547, 35.1751 ] } },
{ "type": "Feature", "properties": { "field_1": 3374, "event_id_cnty": "SYR105976", "day": "23", "month": "9", "year": "2022", "location": "Kassar", "latitude": 36.0629, "longitude": 39.8023 }, "geometry": { "type": "Point", "coordinates": [ 39.8023, 36.0629 ] } },
{ "type": "Feature", "properties": { "field_1": 3375, "event_id_cnty": "TUR27130", "day": "23", "month": "9", "year": "2022", "location": "Torbali", "latitude": 38.1519, "longitude": 27.3622 }, "geometry": { "type": "Point", "coordinates": [ 27.3622, 38.1519 ] } },
{ "type": "Feature", "properties": { "field_1": 3376, "event_id_cnty": "SYR105761", "day": "23", "month": "9", "year": "2022", "location": "Al Wasta", "latitude": 36.1107, "longitude": 36.8401 }, "geometry": { "type": "Point", "coordinates": [ 36.8401, 36.1107 ] } },
{ "type": "Feature", "properties": { "field_1": 3377, "event_id_cnty": "SYR105865", "day": "23", "month": "9", "year": "2022", "location": "Kuwait Al Rahma Camp", "latitude": 36.4814, "longitude": 36.9068 }, "geometry": { "type": "Point", "coordinates": [ 36.9068, 36.4814 ] } },
{ "type": "Feature", "properties": { "field_1": 3378, "event_id_cnty": "SYR105968", "day": "23", "month": "9", "year": "2022", "location": "Small Fikha", "latitude": 36.3471, "longitude": 37.6283 }, "geometry": { "type": "Point", "coordinates": [ 37.6283, 36.3471 ] } },
{ "type": "Feature", "properties": { "field_1": 3379, "event_id_cnty": "SYR106049", "day": "23", "month": "9", "year": "2022", "location": "Dayr Hafir", "latitude": 36.156, "longitude": 37.7093 }, "geometry": { "type": "Point", "coordinates": [ 37.7093, 36.156 ] } },
{ "type": "Feature", "properties": { "field_1": 3380, "event_id_cnty": "SYR105970", "day": "23", "month": "9", "year": "2022", "location": "Tafas", "latitude": 32.7362, "longitude": 36.0673 }, "geometry": { "type": "Point", "coordinates": [ 36.0673, 32.7362 ] } },
{ "type": "Feature", "properties": { "field_1": 3381, "event_id_cnty": "SYR105869", "day": "23", "month": "9", "year": "2022", "location": "Jasim", "latitude": 32.9912, "longitude": 36.0602 }, "geometry": { "type": "Point", "coordinates": [ 36.0602, 32.9912 ] } },
{ "type": "Feature", "properties": { "field_1": 3382, "event_id_cnty": "SYR106038", "day": "23", "month": "9", "year": "2022", "location": "Eastern Ghariyeh", "latitude": 32.6782, "longitude": 36.2581 }, "geometry": { "type": "Point", "coordinates": [ 36.2581, 32.6782 ] } },
{ "type": "Feature", "properties": { "field_1": 3383, "event_id_cnty": "SYR105743", "day": "22", "month": "9", "year": "2022", "location": "Qebtan al Jabal", "latitude": 36.2637, "longitude": 36.9487 }, "geometry": { "type": "Point", "coordinates": [ 36.9487, 36.2637 ] } },
{ "type": "Feature", "properties": { "field_1": 3384, "event_id_cnty": "SYR105848", "day": "22", "month": "9", "year": "2022", "location": "Daret Azza", "latitude": 36.285, "longitude": 36.8511 }, "geometry": { "type": "Point", "coordinates": [ 36.8511, 36.285 ] } },
{ "type": "Feature", "properties": { "field_1": 3385, "event_id_cnty": "SYR105887", "day": "22", "month": "9", "year": "2022", "location": "Ibbin", "latitude": 36.4659, "longitude": 36.9933 }, "geometry": { "type": "Point", "coordinates": [ 36.9933, 36.4659 ] } },
{ "type": "Feature", "properties": { "field_1": 3386, "event_id_cnty": "SYR105911", "day": "22", "month": "9", "year": "2022", "location": "Zir", "latitude": 35.1248, "longitude": 40.4346 }, "geometry": { "type": "Point", "coordinates": [ 40.4346, 35.1248 ] } },
{ "type": "Feature", "properties": { "field_1": 3387, "event_id_cnty": "SYR105916", "day": "22", "month": "9", "year": "2022", "location": "Afrin", "latitude": 36.5111, "longitude": 36.8655 }, "geometry": { "type": "Point", "coordinates": [ 36.8655, 36.5111 ] } },
{ "type": "Feature", "properties": { "field_1": 3388, "event_id_cnty": "SYR105930", "day": "22", "month": "9", "year": "2022", "location": "Eastern Gharibah", "latitude": 35.6335, "longitude": 40.747 }, "geometry": { "type": "Point", "coordinates": [ 40.747, 35.6335 ] } },
{ "type": "Feature", "properties": { "field_1": 3389, "event_id_cnty": "SYR105890", "day": "22", "month": "9", "year": "2022", "location": "Sheikh Isa", "latitude": 36.4793, "longitude": 37.1467 }, "geometry": { "type": "Point", "coordinates": [ 37.1467, 36.4793 ] } },
{ "type": "Feature", "properties": { "field_1": 3390, "event_id_cnty": "SYR105891", "day": "22", "month": "9", "year": "2022", "location": "Tall Refaat", "latitude": 36.4726, "longitude": 37.0941 }, "geometry": { "type": "Point", "coordinates": [ 37.0941, 36.4726 ] } },
{ "type": "Feature", "properties": { "field_1": 3391, "event_id_cnty": "SYR105953", "day": "22", "month": "9", "year": "2022", "location": "Al Mayadin", "latitude": 35.0248, "longitude": 40.428 }, "geometry": { "type": "Point", "coordinates": [ 40.428, 35.0248 ] } },
{ "type": "Feature", "properties": { "field_1": 3392, "event_id_cnty": "SYR105884", "day": "22", "month": "9", "year": "2022", "location": "Harbal", "latitude": 36.4306, "longitude": 37.1669 }, "geometry": { "type": "Point", "coordinates": [ 37.1669, 36.4306 ] } },
{ "type": "Feature", "properties": { "field_1": 3393, "event_id_cnty": "SYR105859", "day": "22", "month": "9", "year": "2022", "location": "Yamdiyeh", "latitude": 35.8343, "longitude": 36.1351 }, "geometry": { "type": "Point", "coordinates": [ 36.1351, 35.8343 ] } },
{ "type": "Feature", "properties": { "field_1": 3394, "event_id_cnty": "SYR105854", "day": "22", "month": "9", "year": "2022", "location": "Kansafra", "latitude": 35.6599, "longitude": 36.4849 }, "geometry": { "type": "Point", "coordinates": [ 36.4849, 35.6599 ] } },
{ "type": "Feature", "properties": { "field_1": 3395, "event_id_cnty": "SYR105845", "day": "22", "month": "9", "year": "2022", "location": "Atareb", "latitude": 36.1379, "longitude": 36.8284 }, "geometry": { "type": "Point", "coordinates": [ 36.8284, 36.1379 ] } },
{ "type": "Feature", "properties": { "field_1": 3396, "event_id_cnty": "SYR105965", "day": "22", "month": "9", "year": "2022", "location": "Azaz", "latitude": 36.5849, "longitude": 37.0432 }, "geometry": { "type": "Point", "coordinates": [ 37.0432, 36.5849 ] } },
{ "type": "Feature", "properties": { "field_1": 3397, "event_id_cnty": "SYR105858", "day": "22", "month": "9", "year": "2022", "location": "Tadil", "latitude": 36.1647, "longitude": 36.888 }, "geometry": { "type": "Point", "coordinates": [ 36.888, 36.1647 ] } },
{ "type": "Feature", "properties": { "field_1": 3398, "event_id_cnty": "SYR105849", "day": "22", "month": "9", "year": "2022", "location": "Kafr Noran", "latitude": 36.078, "longitude": 36.8322 }, "geometry": { "type": "Point", "coordinates": [ 36.8322, 36.078 ] } },
{ "type": "Feature", "properties": { "field_1": 3399, "event_id_cnty": "SYR105754", "day": "22", "month": "9", "year": "2022", "location": "Enab", "latitude": 36.5191, "longitude": 36.9543 }, "geometry": { "type": "Point", "coordinates": [ 36.9543, 36.5191 ] } },
{ "type": "Feature", "properties": { "field_1": 3400, "event_id_cnty": "SYR105855", "day": "22", "month": "9", "year": "2022", "location": "Makbas", "latitude": 36.2461, "longitude": 36.8857 }, "geometry": { "type": "Point", "coordinates": [ 36.8857, 36.2461 ] } },
{ "type": "Feature", "properties": { "field_1": 3401, "event_id_cnty": "SYR105961", "day": "22", "month": "9", "year": "2022", "location": "Regiment 46 - Military Base", "latitude": 36.1239, "longitude": 36.888 }, "geometry": { "type": "Point", "coordinates": [ 36.888, 36.1239 ] } },
{ "type": "Feature", "properties": { "field_1": 3402, "event_id_cnty": "SYR105853", "day": "22", "month": "9", "year": "2022", "location": "Kafr Taal", "latitude": 36.1542, "longitude": 36.8935 }, "geometry": { "type": "Point", "coordinates": [ 36.8935, 36.1542 ] } },
{ "type": "Feature", "properties": { "field_1": 3403, "event_id_cnty": "SYR105760", "day": "22", "month": "9", "year": "2022", "location": "Regiment 111 Army Base", "latitude": 36.2586, "longitude": 36.8952 }, "geometry": { "type": "Point", "coordinates": [ 36.8952, 36.2586 ] } },
{ "type": "Feature", "properties": { "field_1": 3404, "event_id_cnty": "SYR105922", "day": "22", "month": "9", "year": "2022", "location": "Ar-Raqqa", "latitude": 35.9428, "longitude": 39.0519 }, "geometry": { "type": "Point", "coordinates": [ 39.0519, 35.9428 ] } },
{ "type": "Feature", "properties": { "field_1": 3405, "event_id_cnty": "SYR105839", "day": "22", "month": "9", "year": "2022", "location": "Al Hallubah", "latitude": 35.6127, "longitude": 36.419 }, "geometry": { "type": "Point", "coordinates": [ 36.419, 35.6127 ] } },
{ "type": "Feature", "properties": { "field_1": 3406, "event_id_cnty": "SYR105847", "day": "22", "month": "9", "year": "2022", "location": "Bara", "latitude": 35.686, "longitude": 36.5424 }, "geometry": { "type": "Point", "coordinates": [ 36.5424, 35.686 ] } },
{ "type": "Feature", "properties": { "field_1": 3407, "event_id_cnty": "SYR105774", "day": "22", "month": "9", "year": "2022", "location": "As-Saan", "latitude": 35.2637, "longitude": 37.3735 }, "geometry": { "type": "Point", "coordinates": [ 37.3735, 35.2637 ] } },
{ "type": "Feature", "properties": { "field_1": 3408, "event_id_cnty": "SYR105844", "day": "22", "month": "9", "year": "2022", "location": "Ankawi", "latitude": 35.5967, "longitude": 36.3877 }, "geometry": { "type": "Point", "coordinates": [ 36.3877, 35.5967 ] } },
{ "type": "Feature", "properties": { "field_1": 3409, "event_id_cnty": "SYR105745", "day": "22", "month": "9", "year": "2022", "location": "Kafr Nobol", "latitude": 35.6147, "longitude": 36.5603 }, "geometry": { "type": "Point", "coordinates": [ 36.5603, 35.6147 ] } },
{ "type": "Feature", "properties": { "field_1": 3410, "event_id_cnty": "SYR105843", "day": "22", "month": "9", "year": "2022", "location": "Al Wasta", "latitude": 36.1107, "longitude": 36.8401 }, "geometry": { "type": "Point", "coordinates": [ 36.8401, 36.1107 ] } },
{ "type": "Feature", "properties": { "field_1": 3411, "event_id_cnty": "SYR105749", "day": "22", "month": "9", "year": "2022", "location": "Kafr Amma", "latitude": 36.1409, "longitude": 36.8735 }, "geometry": { "type": "Point", "coordinates": [ 36.8735, 36.1409 ] } },
{ "type": "Feature", "properties": { "field_1": 3412, "event_id_cnty": "SYR105842", "day": "22", "month": "9", "year": "2022", "location": "Damascus - International Airport", "latitude": 33.417, "longitude": 36.509 }, "geometry": { "type": "Point", "coordinates": [ 36.509, 33.417 ] } },
{ "type": "Feature", "properties": { "field_1": 3413, "event_id_cnty": "SYR111461", "day": "22", "month": "9", "year": "2022", "location": "Mzeireb", "latitude": 32.7068, "longitude": 36.0267 }, "geometry": { "type": "Point", "coordinates": [ 36.0267, 32.7068 ] } },
{ "type": "Feature", "properties": { "field_1": 3414, "event_id_cnty": "SYR105941", "day": "22", "month": "9", "year": "2022", "location": "Maraanaz", "latitude": 36.5511, "longitude": 37.0187 }, "geometry": { "type": "Point", "coordinates": [ 37.0187, 36.5511 ] } },
{ "type": "Feature", "properties": { "field_1": 3415, "event_id_cnty": "SYR105742", "day": "21", "month": "9", "year": "2022", "location": "Atareb", "latitude": 36.1379, "longitude": 36.8284 }, "geometry": { "type": "Point", "coordinates": [ 36.8284, 36.1379 ] } },
{ "type": "Feature", "properties": { "field_1": 3416, "event_id_cnty": "SYR105888", "day": "21", "month": "9", "year": "2022", "location": "Jizeh", "latitude": 32.5684, "longitude": 36.3154 }, "geometry": { "type": "Point", "coordinates": [ 36.3154, 32.5684 ] } },
{ "type": "Feature", "properties": { "field_1": 3417, "event_id_cnty": "SYR105882", "day": "21", "month": "9", "year": "2022", "location": "Menbij", "latitude": 36.5258, "longitude": 37.951 }, "geometry": { "type": "Point", "coordinates": [ 37.951, 36.5258 ] } },
{ "type": "Feature", "properties": { "field_1": 3418, "event_id_cnty": "SYR105958", "day": "21", "month": "9", "year": "2022", "location": "Regiment 46 - Military Base", "latitude": 36.1239, "longitude": 36.888 }, "geometry": { "type": "Point", "coordinates": [ 36.888, 36.1239 ] } },
{ "type": "Feature", "properties": { "field_1": 3419, "event_id_cnty": "SYR105903", "day": "21", "month": "9", "year": "2022", "location": "Um Fakik", "latitude": 36.5396, "longitude": 41.2773 }, "geometry": { "type": "Point", "coordinates": [ 41.2773, 36.5396 ] } },
{ "type": "Feature", "properties": { "field_1": 3420, "event_id_cnty": "SYR105835", "day": "21", "month": "9", "year": "2022", "location": "Kafr Amma", "latitude": 36.1409, "longitude": 36.8735 }, "geometry": { "type": "Point", "coordinates": [ 36.8735, 36.1409 ] } },
{ "type": "Feature", "properties": { "field_1": 3421, "event_id_cnty": "SYR105918", "day": "21", "month": "9", "year": "2022", "location": "Abu Rasin", "latitude": 36.8465, "longitude": 40.3284 }, "geometry": { "type": "Point", "coordinates": [ 40.3284, 36.8465 ] } },
{ "type": "Feature", "properties": { "field_1": 3422, "event_id_cnty": "SYR105834", "day": "21", "month": "9", "year": "2022", "location": "Hadra - Baldaq Kabeer", "latitude": 36.7031, "longitude": 37.8916 }, "geometry": { "type": "Point", "coordinates": [ 37.8916, 36.7031 ] } },
{ "type": "Feature", "properties": { "field_1": 3423, "event_id_cnty": "SYR105924", "day": "21", "month": "9", "year": "2022", "location": "Amuda", "latitude": 37.1026, "longitude": 40.9313 }, "geometry": { "type": "Point", "coordinates": [ 40.9313, 37.1026 ] } },
{ "type": "Feature", "properties": { "field_1": 3424, "event_id_cnty": "SYR105925", "day": "21", "month": "9", "year": "2022", "location": "Amuda", "latitude": 37.1026, "longitude": 40.9313 }, "geometry": { "type": "Point", "coordinates": [ 40.9313, 37.1026 ] } },
{ "type": "Feature", "properties": { "field_1": 3425, "event_id_cnty": "SYR105956", "day": "21", "month": "9", "year": "2022", "location": "Milaja", "latitude": 35.5927, "longitude": 36.4944 }, "geometry": { "type": "Point", "coordinates": [ 36.4944, 35.5927 ] } },
{ "type": "Feature", "properties": { "field_1": 3426, "event_id_cnty": "SYR105832", "day": "21", "month": "9", "year": "2022", "location": "Fleifel", "latitude": 35.5888, "longitude": 36.4562 }, "geometry": { "type": "Point", "coordinates": [ 36.4562, 35.5888 ] } },
{ "type": "Feature", "properties": { "field_1": 3427, "event_id_cnty": "SYR105759", "day": "21", "month": "9", "year": "2022", "location": "Al Bab", "latitude": 36.3697, "longitude": 37.5149 }, "geometry": { "type": "Point", "coordinates": [ 37.5149, 36.3697 ] } },
{ "type": "Feature", "properties": { "field_1": 3428, "event_id_cnty": "SYR105901", "day": "21", "month": "9", "year": "2022", "location": "Asaliyeh", "latitude": 36.548, "longitude": 37.8026 }, "geometry": { "type": "Point", "coordinates": [ 37.8026, 36.548 ] } },
{ "type": "Feature", "properties": { "field_1": 3429, "event_id_cnty": "SYR105885", "day": "21", "month": "9", "year": "2022", "location": "Azaz", "latitude": 36.5849, "longitude": 37.0432 }, "geometry": { "type": "Point", "coordinates": [ 37.0432, 36.5849 ] } },
{ "type": "Feature", "properties": { "field_1": 3430, "event_id_cnty": "SYR105871", "day": "21", "month": "9", "year": "2022", "location": "Tal Jijin", "latitude": 36.4108, "longitude": 37.3411 }, "geometry": { "type": "Point", "coordinates": [ 37.3411, 36.4108 ] } },
{ "type": "Feature", "properties": { "field_1": 3431, "event_id_cnty": "SYR105904", "day": "21", "month": "9", "year": "2022", "location": "Buz Kij", "latitude": 36.6107, "longitude": 37.9069 }, "geometry": { "type": "Point", "coordinates": [ 37.9069, 36.6107 ] } },
{ "type": "Feature", "properties": { "field_1": 3432, "event_id_cnty": "SYR105905", "day": "21", "month": "9", "year": "2022", "location": "Menbij", "latitude": 36.5258, "longitude": 37.951 }, "geometry": { "type": "Point", "coordinates": [ 37.951, 36.5258 ] } },
{ "type": "Feature", "properties": { "field_1": 3433, "event_id_cnty": "SYR105833", "day": "21", "month": "9", "year": "2022", "location": "Ftireh", "latitude": 35.6097, "longitude": 36.4853 }, "geometry": { "type": "Point", "coordinates": [ 36.4853, 35.6097 ] } },
{ "type": "Feature", "properties": { "field_1": 3434, "event_id_cnty": "SYR105878", "day": "21", "month": "9", "year": "2022", "location": "Tuways", "latitude": 36.434, "longitude": 37.3024 }, "geometry": { "type": "Point", "coordinates": [ 37.3024, 36.434 ] } },
{ "type": "Feature", "properties": { "field_1": 3435, "event_id_cnty": "SYR105838", "day": "21", "month": "9", "year": "2022", "location": "Sfuhen", "latitude": 35.6073, "longitude": 36.4645 }, "geometry": { "type": "Point", "coordinates": [ 36.4645, 35.6073 ] } },
{ "type": "Feature", "properties": { "field_1": 3436, "event_id_cnty": "SYR105831", "day": "21", "month": "9", "year": "2022", "location": "Bara", "latitude": 35.686, "longitude": 36.5424 }, "geometry": { "type": "Point", "coordinates": [ 36.5424, 35.686 ] } },
{ "type": "Feature", "properties": { "field_1": 3437, "event_id_cnty": "SYR105900", "day": "21", "month": "9", "year": "2022", "location": "Ghuzaylah", "latitude": 36.5474, "longitude": 41.3117 }, "geometry": { "type": "Point", "coordinates": [ 41.3117, 36.5474 ] } },
{ "type": "Feature", "properties": { "field_1": 3438, "event_id_cnty": "SYR105926", "day": "21", "month": "9", "year": "2022", "location": "Tall Ziwan", "latitude": 37.0583, "longitude": 41.3552 }, "geometry": { "type": "Point", "coordinates": [ 41.3552, 37.0583 ] } },
{ "type": "Feature", "properties": { "field_1": 3439, "event_id_cnty": "SYR105741", "day": "20", "month": "9", "year": "2022", "location": "Milaja", "latitude": 35.5927, "longitude": 36.4944 }, "geometry": { "type": "Point", "coordinates": [ 36.4944, 35.5927 ] } },
{ "type": "Feature", "properties": { "field_1": 3440, "event_id_cnty": "SYR105756", "day": "20", "month": "9", "year": "2022", "location": "Qayrawan Amuda", "latitude": 36.8258, "longitude": 40.978 }, "geometry": { "type": "Point", "coordinates": [ 40.978, 36.8258 ] } },
{ "type": "Feature", "properties": { "field_1": 3441, "event_id_cnty": "SYR105819", "day": "20", "month": "9", "year": "2022", "location": "Fleifel", "latitude": 35.5888, "longitude": 36.4562 }, "geometry": { "type": "Point", "coordinates": [ 36.4562, 35.5888 ] } },
{ "type": "Feature", "properties": { "field_1": 3442, "event_id_cnty": "SYR105824", "day": "20", "month": "9", "year": "2022", "location": "Sfuhen", "latitude": 35.6073, "longitude": 36.4645 }, "geometry": { "type": "Point", "coordinates": [ 36.4645, 35.6073 ] } },
{ "type": "Feature", "properties": { "field_1": 3443, "event_id_cnty": "SYR105828", "day": "20", "month": "9", "year": "2022", "location": "Ghandorah", "latitude": 36.6771, "longitude": 37.7556 }, "geometry": { "type": "Point", "coordinates": [ 37.7556, 36.6771 ] } },
{ "type": "Feature", "properties": { "field_1": 3444, "event_id_cnty": "SYR105873", "day": "20", "month": "9", "year": "2022", "location": "Kharab Nas", "latitude": 36.83, "longitude": 38.5522 }, "geometry": { "type": "Point", "coordinates": [ 38.5522, 36.83 ] } },
{ "type": "Feature", "properties": { "field_1": 3445, "event_id_cnty": "SYR105881", "day": "20", "month": "9", "year": "2022", "location": "Shtaya", "latitude": 34.6846, "longitude": 36.9537 }, "geometry": { "type": "Point", "coordinates": [ 36.9537, 34.6846 ] } },
{ "type": "Feature", "properties": { "field_1": 3446, "event_id_cnty": "SYR105886", "day": "20", "month": "9", "year": "2022", "location": "Yadudeh", "latitude": 32.6689, "longitude": 36.06 }, "geometry": { "type": "Point", "coordinates": [ 36.06, 32.6689 ] } },
{ "type": "Feature", "properties": { "field_1": 3447, "event_id_cnty": "SYR105954", "day": "20", "month": "9", "year": "2022", "location": "Regiment 46 - Military Base", "latitude": 36.1239, "longitude": 36.888 }, "geometry": { "type": "Point", "coordinates": [ 36.888, 36.1239 ] } },
{ "type": "Feature", "properties": { "field_1": 3448, "event_id_cnty": "SYR105969", "day": "20", "month": "9", "year": "2022", "location": "Afrin", "latitude": 36.5111, "longitude": 36.8655 }, "geometry": { "type": "Point", "coordinates": [ 36.8655, 36.5111 ] } },
{ "type": "Feature", "properties": { "field_1": 3449, "event_id_cnty": "SYR105967", "day": "20", "month": "9", "year": "2022", "location": "Azaz", "latitude": 36.5849, "longitude": 37.0432 }, "geometry": { "type": "Point", "coordinates": [ 37.0432, 36.5849 ] } },
{ "type": "Feature", "properties": { "field_1": 3450, "event_id_cnty": "SYR105823", "day": "20", "month": "9", "year": "2022", "location": "Kafr Amma", "latitude": 36.1409, "longitude": 36.8735 }, "geometry": { "type": "Point", "coordinates": [ 36.8735, 36.1409 ] } },
{ "type": "Feature", "properties": { "field_1": 3451, "event_id_cnty": "SYR105880", "day": "20", "month": "9", "year": "2022", "location": "Tell Abiad", "latitude": 36.6978, "longitude": 38.9548 }, "geometry": { "type": "Point", "coordinates": [ 38.9548, 36.6978 ] } },
{ "type": "Feature", "properties": { "field_1": 3452, "event_id_cnty": "SYR105841", "day": "20", "month": "9", "year": "2022", "location": "Tuways", "latitude": 36.434, "longitude": 37.3024 }, "geometry": { "type": "Point", "coordinates": [ 37.3024, 36.434 ] } },
{ "type": "Feature", "properties": { "field_1": 3453, "event_id_cnty": "SYR105879", "day": "20", "month": "9", "year": "2022", "location": "Bir Arab", "latitude": 36.6554, "longitude": 38.7145 }, "geometry": { "type": "Point", "coordinates": [ 38.7145, 36.6554 ] } },
{ "type": "Feature", "properties": { "field_1": 3454, "event_id_cnty": "SYR105827", "day": "20", "month": "9", "year": "2022", "location": "Aziziyeh", "latitude": 36.7907, "longitude": 39.9787 }, "geometry": { "type": "Point", "coordinates": [ 39.9787, 36.7907 ] } },
{ "type": "Feature", "properties": { "field_1": 3455, "event_id_cnty": "SYR105876", "day": "20", "month": "9", "year": "2022", "location": "Asaliyeh", "latitude": 36.548, "longitude": 37.8026 }, "geometry": { "type": "Point", "coordinates": [ 37.8026, 36.548 ] } },
{ "type": "Feature", "properties": { "field_1": 3456, "event_id_cnty": "SYR105877", "day": "20", "month": "9", "year": "2022", "location": "Aghtrin", "latitude": 36.5096, "longitude": 37.3359 }, "geometry": { "type": "Point", "coordinates": [ 37.3359, 36.5096 ] } },
{ "type": "Feature", "properties": { "field_1": 3457, "event_id_cnty": "SYR105896", "day": "20", "month": "9", "year": "2022", "location": "Deir Jamal", "latitude": 36.4456, "longitude": 37.0279 }, "geometry": { "type": "Point", "coordinates": [ 37.0279, 36.4456 ] } },
{ "type": "Feature", "properties": { "field_1": 3458, "event_id_cnty": "SYR105817", "day": "20", "month": "9", "year": "2022", "location": "Atareb", "latitude": 36.1379, "longitude": 36.8284 }, "geometry": { "type": "Point", "coordinates": [ 36.8284, 36.1379 ] } },
{ "type": "Feature", "properties": { "field_1": 3459, "event_id_cnty": "SYR105898", "day": "20", "month": "9", "year": "2022", "location": "Ibbin", "latitude": 36.4659, "longitude": 36.9933 }, "geometry": { "type": "Point", "coordinates": [ 36.9933, 36.4659 ] } },
{ "type": "Feature", "properties": { "field_1": 3460, "event_id_cnty": "SYR105801", "day": "20", "month": "9", "year": "2022", "location": "Jazaret Milaj", "latitude": 35.778, "longitude": 39.7658 }, "geometry": { "type": "Point", "coordinates": [ 39.7658, 35.778 ] } },
{ "type": "Feature", "properties": { "field_1": 3461, "event_id_cnty": "SYR105822", "day": "20", "month": "9", "year": "2022", "location": "Kabani", "latitude": 35.7187, "longitude": 36.2331 }, "geometry": { "type": "Point", "coordinates": [ 36.2331, 35.7187 ] } },
{ "type": "Feature", "properties": { "field_1": 3462, "event_id_cnty": "SYR105907", "day": "20", "month": "9", "year": "2022", "location": "Turandah", "latitude": 36.496, "longitude": 36.8815 }, "geometry": { "type": "Point", "coordinates": [ 36.8815, 36.496 ] } },
{ "type": "Feature", "properties": { "field_1": 3463, "event_id_cnty": "SYR105899", "day": "20", "month": "9", "year": "2022", "location": "Ziyara Afrin", "latitude": 36.4223, "longitude": 37.0049 }, "geometry": { "type": "Point", "coordinates": [ 37.0049, 36.4223 ] } },
{ "type": "Feature", "properties": { "field_1": 3464, "event_id_cnty": "SYR105883", "day": "20", "month": "9", "year": "2022", "location": "Termala", "latitude": 35.5244, "longitude": 36.4823 }, "geometry": { "type": "Point", "coordinates": [ 36.4823, 35.5244 ] } },
{ "type": "Feature", "properties": { "field_1": 3465, "event_id_cnty": "SYR105818", "day": "20", "month": "9", "year": "2022", "location": "Bara", "latitude": 35.686, "longitude": 36.5424 }, "geometry": { "type": "Point", "coordinates": [ 36.5424, 35.686 ] } },
{ "type": "Feature", "properties": { "field_1": 3466, "event_id_cnty": "SYR105963", "day": "20", "month": "9", "year": "2022", "location": "Mzeireb", "latitude": 32.7068, "longitude": 36.0267 }, "geometry": { "type": "Point", "coordinates": [ 36.0267, 32.7068 ] } },
{ "type": "Feature", "properties": { "field_1": 3467, "event_id_cnty": "SYR105980", "day": "20", "month": "9", "year": "2022", "location": "Qotan", "latitude": 36.7106, "longitude": 36.8002 }, "geometry": { "type": "Point", "coordinates": [ 36.8002, 36.7106 ] } },
{ "type": "Feature", "properties": { "field_1": 3468, "event_id_cnty": "TUR27050", "day": "20", "month": "9", "year": "2022", "location": "Dicle", "latitude": 38.3657, "longitude": 40.0645 }, "geometry": { "type": "Point", "coordinates": [ 40.0645, 38.3657 ] } },
{ "type": "Feature", "properties": { "field_1": 3469, "event_id_cnty": "TUR27109", "day": "20", "month": "9", "year": "2022", "location": "Sultangazi", "latitude": 41.1065, "longitude": 28.8685 }, "geometry": { "type": "Point", "coordinates": [ 28.8685, 41.1065 ] } },
{ "type": "Feature", "properties": { "field_1": 3470, "event_id_cnty": "SYR105815", "day": "20", "month": "9", "year": "2022", "location": "Al Wasta", "latitude": 36.1107, "longitude": 36.8401 }, "geometry": { "type": "Point", "coordinates": [ 36.8401, 36.1107 ] } },
{ "type": "Feature", "properties": { "field_1": 3471, "event_id_cnty": "SYR105966", "day": "20", "month": "9", "year": "2022", "location": "Kuwait Al Rahma Camp", "latitude": 36.4814, "longitude": 36.9068 }, "geometry": { "type": "Point", "coordinates": [ 36.9068, 36.4814 ] } },
{ "type": "Feature", "properties": { "field_1": 3472, "event_id_cnty": "SYR105894", "day": "20", "month": "9", "year": "2022", "location": "Baydar", "latitude": 35.8725, "longitude": 39.3088 }, "geometry": { "type": "Point", "coordinates": [ 39.3088, 35.8725 ] } },
{ "type": "Feature", "properties": { "field_1": 3473, "event_id_cnty": "SYR105739", "day": "20", "month": "9", "year": "2022", "location": "Al Hishah", "latitude": 36.3529, "longitude": 39.0169 }, "geometry": { "type": "Point", "coordinates": [ 39.0169, 36.3529 ] } },
{ "type": "Feature", "properties": { "field_1": 3474, "event_id_cnty": "TUR27049", "day": "19", "month": "9", "year": "2022", "location": "Kato Mountain", "latitude": 37.658, "longitude": 43.1766 }, "geometry": { "type": "Point", "coordinates": [ 43.1766, 37.658 ] } },
{ "type": "Feature", "properties": { "field_1": 3475, "event_id_cnty": "SYR105784", "day": "19", "month": "9", "year": "2022", "location": "Jazaret Milaj", "latitude": 35.778, "longitude": 39.7658 }, "geometry": { "type": "Point", "coordinates": [ 39.7658, 35.778 ] } },
{ "type": "Feature", "properties": { "field_1": 3476, "event_id_cnty": "SYR105804", "day": "19", "month": "9", "year": "2022", "location": "Ftireh", "latitude": 35.6097, "longitude": 36.4853 }, "geometry": { "type": "Point", "coordinates": [ 36.4853, 35.6097 ] } },
{ "type": "Feature", "properties": { "field_1": 3477, "event_id_cnty": "SYR105805", "day": "19", "month": "9", "year": "2022", "location": "Kafr Amma", "latitude": 36.1409, "longitude": 36.8735 }, "geometry": { "type": "Point", "coordinates": [ 36.8735, 36.1409 ] } },
{ "type": "Feature", "properties": { "field_1": 3478, "event_id_cnty": "SYR105813", "day": "19", "month": "9", "year": "2022", "location": "Taqad", "latitude": 36.1987, "longitude": 36.8698 }, "geometry": { "type": "Point", "coordinates": [ 36.8698, 36.1987 ] } },
{ "type": "Feature", "properties": { "field_1": 3479, "event_id_cnty": "SYR105846", "day": "19", "month": "9", "year": "2022", "location": "Mahjeh", "latitude": 32.9583, "longitude": 36.2222 }, "geometry": { "type": "Point", "coordinates": [ 36.2222, 32.9583 ] } },
{ "type": "Feature", "properties": { "field_1": 3480, "event_id_cnty": "SYR105862", "day": "19", "month": "9", "year": "2022", "location": "Al Isawi", "latitude": 36.689, "longitude": 39.0554 }, "geometry": { "type": "Point", "coordinates": [ 39.0554, 36.689 ] } },
{ "type": "Feature", "properties": { "field_1": 3481, "event_id_cnty": "SYR105872", "day": "19", "month": "9", "year": "2022", "location": "Tall Refaat", "latitude": 36.4726, "longitude": 37.0941 }, "geometry": { "type": "Point", "coordinates": [ 37.0941, 36.4726 ] } },
{ "type": "Feature", "properties": { "field_1": 3482, "event_id_cnty": "SYR105798", "day": "19", "month": "9", "year": "2022", "location": "Sweidan Jazira", "latitude": 34.8964, "longitude": 40.59 }, "geometry": { "type": "Point", "coordinates": [ 40.59, 34.8964 ] } },
{ "type": "Feature", "properties": { "field_1": 3483, "event_id_cnty": "SYR105799", "day": "19", "month": "9", "year": "2022", "location": "Bahfis", "latitude": 36.1838, "longitude": 36.9063 }, "geometry": { "type": "Point", "coordinates": [ 36.9063, 36.1838 ] } },
{ "type": "Feature", "properties": { "field_1": 3484, "event_id_cnty": "SYR105808", "day": "19", "month": "9", "year": "2022", "location": "Kafr Taal", "latitude": 36.1542, "longitude": 36.8935 }, "geometry": { "type": "Point", "coordinates": [ 36.8935, 36.1542 ] } },
{ "type": "Feature", "properties": { "field_1": 3485, "event_id_cnty": "SYR105870", "day": "19", "month": "9", "year": "2022", "location": "Harbal", "latitude": 36.4306, "longitude": 37.1669 }, "geometry": { "type": "Point", "coordinates": [ 37.1669, 36.4306 ] } },
{ "type": "Feature", "properties": { "field_1": 3486, "event_id_cnty": "SYR105812", "day": "19", "month": "9", "year": "2022", "location": "Shaykh Sulayman", "latitude": 36.2761, "longitude": 36.9096 }, "geometry": { "type": "Point", "coordinates": [ 36.9096, 36.2761 ] } },
{ "type": "Feature", "properties": { "field_1": 3487, "event_id_cnty": "SYR105949", "day": "19", "month": "9", "year": "2022", "location": "Atareb", "latitude": 36.1379, "longitude": 36.8284 }, "geometry": { "type": "Point", "coordinates": [ 36.8284, 36.1379 ] } },
{ "type": "Feature", "properties": { "field_1": 3488, "event_id_cnty": "SYR105809", "day": "19", "month": "9", "year": "2022", "location": "Kaljibrin", "latitude": 36.5361, "longitude": 37.1175 }, "geometry": { "type": "Point", "coordinates": [ 37.1175, 36.5361 ] } },
{ "type": "Feature", "properties": { "field_1": 3489, "event_id_cnty": "SYR105864", "day": "19", "month": "9", "year": "2022", "location": "Kabani", "latitude": 35.7187, "longitude": 36.2331 }, "geometry": { "type": "Point", "coordinates": [ 36.2331, 35.7187 ] } },
{ "type": "Feature", "properties": { "field_1": 3490, "event_id_cnty": "SYR105836", "day": "19", "month": "9", "year": "2022", "location": "Dargir - Deir al Kabir", "latitude": 36.5446, "longitude": 36.7652 }, "geometry": { "type": "Point", "coordinates": [ 36.7652, 36.5446 ] } },
{ "type": "Feature", "properties": { "field_1": 3491, "event_id_cnty": "SYR105850", "day": "19", "month": "9", "year": "2022", "location": "Al Ghab Plain", "latitude": 35.5604, "longitude": 36.3442 }, "geometry": { "type": "Point", "coordinates": [ 36.3442, 35.5604 ] } },
{ "type": "Feature", "properties": { "field_1": 3492, "event_id_cnty": "SYR105746", "day": "19", "month": "9", "year": "2022", "location": "Dar Al-Kabira", "latitude": 35.6068, "longitude": 36.5168 }, "geometry": { "type": "Point", "coordinates": [ 36.5168, 35.6068 ] } },
{ "type": "Feature", "properties": { "field_1": 3493, "event_id_cnty": "SYR105802", "day": "19", "month": "9", "year": "2022", "location": "Bara", "latitude": 35.686, "longitude": 36.5424 }, "geometry": { "type": "Point", "coordinates": [ 36.5424, 35.686 ] } },
{ "type": "Feature", "properties": { "field_1": 3494, "event_id_cnty": "SYR105811", "day": "19", "month": "9", "year": "2022", "location": "Sfuhen", "latitude": 35.6073, "longitude": 36.4645 }, "geometry": { "type": "Point", "coordinates": [ 36.4645, 35.6073 ] } },
{ "type": "Feature", "properties": { "field_1": 3495, "event_id_cnty": "SYR105747", "day": "19", "month": "9", "year": "2022", "location": "Milaja", "latitude": 35.5927, "longitude": 36.4944 }, "geometry": { "type": "Point", "coordinates": [ 36.4944, 35.5927 ] } },
{ "type": "Feature", "properties": { "field_1": 3496, "event_id_cnty": "SYR105753", "day": "19", "month": "9", "year": "2022", "location": "Sweidan Jazira", "latitude": 34.8964, "longitude": 40.59 }, "geometry": { "type": "Point", "coordinates": [ 40.59, 34.8964 ] } },
{ "type": "Feature", "properties": { "field_1": 3497, "event_id_cnty": "SYR105800", "day": "19", "month": "9", "year": "2022", "location": "Banin", "latitude": 35.7097, "longitude": 36.6401 }, "geometry": { "type": "Point", "coordinates": [ 36.6401, 35.7097 ] } },
{ "type": "Feature", "properties": { "field_1": 3498, "event_id_cnty": "TUR27369", "day": "19", "month": "9", "year": "2022", "location": "Yuksekova", "latitude": 37.5736, "longitude": 44.2872 }, "geometry": { "type": "Point", "coordinates": [ 44.2872, 37.5736 ] } },
{ "type": "Feature", "properties": { "field_1": 3499, "event_id_cnty": "SYR105856", "day": "19", "month": "9", "year": "2022", "location": "Al Bab", "latitude": 36.3697, "longitude": 37.5149 }, "geometry": { "type": "Point", "coordinates": [ 37.5149, 36.3697 ] } },
{ "type": "Feature", "properties": { "field_1": 3500, "event_id_cnty": "SYR106023", "day": "19", "month": "9", "year": "2022", "location": "Aziziyeh", "latitude": 36.7907, "longitude": 39.9787 }, "geometry": { "type": "Point", "coordinates": [ 39.9787, 36.7907 ] } },
{ "type": "Feature", "properties": { "field_1": 3501, "event_id_cnty": "SYR105816", "day": "19", "month": "9", "year": "2022", "location": "Eastern Basa - Ein Qadi", "latitude": 32.8998, "longitude": 35.8762 }, "geometry": { "type": "Point", "coordinates": [ 35.8762, 32.8998 ] } },
{ "type": "Feature", "properties": { "field_1": 3502, "event_id_cnty": "TUR27028", "day": "18", "month": "9", "year": "2022", "location": "Asagioylum", "latitude": 36.864, "longitude": 38.5461 }, "geometry": { "type": "Point", "coordinates": [ 38.5461, 36.864 ] } },
{ "type": "Feature", "properties": { "field_1": 3503, "event_id_cnty": "TUR27029", "day": "18", "month": "9", "year": "2022", "location": "Degerli", "latitude": 37.5596, "longitude": 44.3965 }, "geometry": { "type": "Point", "coordinates": [ 44.3965, 37.5596 ] } },
{ "type": "Feature", "properties": { "field_1": 3504, "event_id_cnty": "SYR105748", "day": "18", "month": "9", "year": "2022", "location": "Daman", "latitude": 35.2393, "longitude": 40.5454 }, "geometry": { "type": "Point", "coordinates": [ 40.5454, 35.2393 ] } },
{ "type": "Feature", "properties": { "field_1": 3505, "event_id_cnty": "SYR105910", "day": "18", "month": "9", "year": "2022", "location": "Abu Rasin", "latitude": 36.8465, "longitude": 40.3284 }, "geometry": { "type": "Point", "coordinates": [ 40.3284, 36.8465 ] } },
{ "type": "Feature", "properties": { "field_1": 3506, "event_id_cnty": "SYR105912", "day": "18", "month": "9", "year": "2022", "location": "Amuda", "latitude": 37.1026, "longitude": 40.9313 }, "geometry": { "type": "Point", "coordinates": [ 40.9313, 37.1026 ] } },
{ "type": "Feature", "properties": { "field_1": 3507, "event_id_cnty": "SYR105917", "day": "18", "month": "9", "year": "2022", "location": "Ein Issa", "latitude": 36.3837, "longitude": 38.8628 }, "geometry": { "type": "Point", "coordinates": [ 38.8628, 36.3837 ] } },
{ "type": "Feature", "properties": { "field_1": 3508, "event_id_cnty": "SYR105920", "day": "18", "month": "9", "year": "2022", "location": "Qahtaniyyah", "latitude": 37.0284, "longitude": 41.5473 }, "geometry": { "type": "Point", "coordinates": [ 41.5473, 37.0284 ] } },
{ "type": "Feature", "properties": { "field_1": 3509, "event_id_cnty": "SYR105948", "day": "18", "month": "9", "year": "2022", "location": "Regiment 46 - Military Base", "latitude": 36.1239, "longitude": 36.888 }, "geometry": { "type": "Point", "coordinates": [ 36.888, 36.1239 ] } },
{ "type": "Feature", "properties": { "field_1": 3510, "event_id_cnty": "SYR105952", "day": "18", "month": "9", "year": "2022", "location": "Ein Thakar", "latitude": 32.8587, "longitude": 35.9082 }, "geometry": { "type": "Point", "coordinates": [ 35.9082, 32.8587 ] } },
{ "type": "Feature", "properties": { "field_1": 3511, "event_id_cnty": "SYR105806", "day": "18", "month": "9", "year": "2022", "location": "Hrak", "latitude": 32.7507, "longitude": 36.304 }, "geometry": { "type": "Point", "coordinates": [ 36.304, 32.7507 ] } },
{ "type": "Feature", "properties": { "field_1": 3512, "event_id_cnty": "SYR105906", "day": "18", "month": "9", "year": "2022", "location": "Al-Omar Oil Field", "latitude": 35.0799, "longitude": 40.5917 }, "geometry": { "type": "Point", "coordinates": [ 40.5917, 35.0799 ] } },
{ "type": "Feature", "properties": { "field_1": 3513, "event_id_cnty": "SYR105793", "day": "18", "month": "9", "year": "2022", "location": "Kafr Noran", "latitude": 36.078, "longitude": 36.8322 }, "geometry": { "type": "Point", "coordinates": [ 36.8322, 36.078 ] } },
{ "type": "Feature", "properties": { "field_1": 3514, "event_id_cnty": "SYR105821", "day": "18", "month": "9", "year": "2022", "location": "Tadaf", "latitude": 36.3479, "longitude": 37.5294 }, "geometry": { "type": "Point", "coordinates": [ 37.5294, 36.3479 ] } },
{ "type": "Feature", "properties": { "field_1": 3515, "event_id_cnty": "SYR105797", "day": "18", "month": "9", "year": "2022", "location": "Qulaydin", "latitude": 35.6132, "longitude": 36.3855 }, "geometry": { "type": "Point", "coordinates": [ 36.3855, 35.6132 ] } },
{ "type": "Feature", "properties": { "field_1": 3516, "event_id_cnty": "SYR105795", "day": "18", "month": "9", "year": "2022", "location": "Kansafra", "latitude": 35.6599, "longitude": 36.4849 }, "geometry": { "type": "Point", "coordinates": [ 36.4849, 35.6599 ] } },
{ "type": "Feature", "properties": { "field_1": 3517, "event_id_cnty": "SYR105785", "day": "18", "month": "9", "year": "2022", "location": "Al Ghab Plain", "latitude": 35.5604, "longitude": 36.3442 }, "geometry": { "type": "Point", "coordinates": [ 36.3442, 35.5604 ] } },
{ "type": "Feature", "properties": { "field_1": 3518, "event_id_cnty": "SYR105787", "day": "18", "month": "9", "year": "2022", "location": "Bara", "latitude": 35.686, "longitude": 36.5424 }, "geometry": { "type": "Point", "coordinates": [ 36.5424, 35.686 ] } },
{ "type": "Feature", "properties": { "field_1": 3519, "event_id_cnty": "SYR105931", "day": "18", "month": "9", "year": "2022", "location": "Aboush", "latitude": 36.7488, "longitude": 40.3826 }, "geometry": { "type": "Point", "coordinates": [ 40.3826, 36.7488 ] } },
{ "type": "Feature", "properties": { "field_1": 3520, "event_id_cnty": "SYR105788", "day": "18", "month": "9", "year": "2022", "location": "Fleifel", "latitude": 35.5888, "longitude": 36.4562 }, "geometry": { "type": "Point", "coordinates": [ 36.4562, 35.5888 ] } },
{ "type": "Feature", "properties": { "field_1": 3521, "event_id_cnty": "SYR105932", "day": "18", "month": "9", "year": "2022", "location": "Darbasiyah", "latitude": 37.07, "longitude": 40.654 }, "geometry": { "type": "Point", "coordinates": [ 40.654, 37.07 ] } },
{ "type": "Feature", "properties": { "field_1": 3522, "event_id_cnty": "SYR105933", "day": "18", "month": "9", "year": "2022", "location": "Tall Tawil", "latitude": 36.663, "longitude": 40.2836 }, "geometry": { "type": "Point", "coordinates": [ 40.2836, 36.663 ] } },
{ "type": "Feature", "properties": { "field_1": 3523, "event_id_cnty": "SYR105934", "day": "18", "month": "9", "year": "2022", "location": "Tawileh", "latitude": 36.6509, "longitude": 40.2713 }, "geometry": { "type": "Point", "coordinates": [ 40.2713, 36.6509 ] } },
{ "type": "Feature", "properties": { "field_1": 3524, "event_id_cnty": "SYR105875", "day": "18", "month": "9", "year": "2022", "location": "Ain al Arab", "latitude": 36.8891, "longitude": 38.3521 }, "geometry": { "type": "Point", "coordinates": [ 38.3521, 36.8891 ] } },
{ "type": "Feature", "properties": { "field_1": 3525, "event_id_cnty": "SYR105923", "day": "18", "month": "9", "year": "2022", "location": "Ein Issa", "latitude": 36.3837, "longitude": 38.8628 }, "geometry": { "type": "Point", "coordinates": [ 38.8628, 36.3837 ] } },
{ "type": "Feature", "properties": { "field_1": 3526, "event_id_cnty": "SYR105790", "day": "18", "month": "9", "year": "2022", "location": "Ftireh", "latitude": 35.6097, "longitude": 36.4853 }, "geometry": { "type": "Point", "coordinates": [ 36.4853, 35.6097 ] } },
{ "type": "Feature", "properties": { "field_1": 3527, "event_id_cnty": "SYR105796", "day": "18", "month": "9", "year": "2022", "location": "Makbas", "latitude": 36.2461, "longitude": 36.8857 }, "geometry": { "type": "Point", "coordinates": [ 36.8857, 36.2461 ] } },
{ "type": "Feature", "properties": { "field_1": 3528, "event_id_cnty": "SYR105786", "day": "18", "month": "9", "year": "2022", "location": "Banin", "latitude": 35.7097, "longitude": 36.6401 }, "geometry": { "type": "Point", "coordinates": [ 36.6401, 35.7097 ] } },
{ "type": "Feature", "properties": { "field_1": 3529, "event_id_cnty": "SYR105740", "day": "18", "month": "9", "year": "2022", "location": "Jabal al-Akrad", "latitude": 35.7558, "longitude": 36.1772 }, "geometry": { "type": "Point", "coordinates": [ 36.1772, 35.7558 ] } },
{ "type": "Feature", "properties": { "field_1": 3530, "event_id_cnty": "SYR105792", "day": "18", "month": "9", "year": "2022", "location": "Kafr Amma", "latitude": 36.1409, "longitude": 36.8735 },