{
"type": "FeatureCollection",
"name": "Conflicts_Syr_Tur_2022",
"crs": { "type": "name", "properties": { "name": "urn:ogc:def:crs:OGC:1.3:CRS84" } },
"features": [
{ "type": "Feature", "properties": { "field_1": 0, "event_id_cnty": "SYR109663", "day": 31, "month": 12, "year": 2022, "location": "Afrin", "latitude": 36.5111, "longitude": 36.8655 }, "geometry": { "type": "Point", "coordinates": [ 36.8655, 36.5111 ] } },
{ "type": "Feature", "properties": { "field_1": 1, "event_id_cnty": "SYR109664", "day": 31, "month": 12, "year": 2022, "location": "Jandairis", "latitude": 36.3925, "longitude": 36.6896 }, "geometry": { "type": "Point", "coordinates": [ 36.6896, 36.3925 ] } },
{ "type": "Feature", "properties": { "field_1": 2, "event_id_cnty": "SYR109665", "day": 31, "month": 12, "year": 2022, "location": "Hole Camp", "latitude": 36.3768, "longitude": 41.1333 }, "geometry": { "type": "Point", "coordinates": [ 41.1333, 36.3768 ] } },
{ "type": "Feature", "properties": { "field_1": 3, "event_id_cnty": "SYR109685", "day": 31, "month": 12, "year": 2022, "location": "Al Shanan", "latitude": 34.9708, "longitude": 40.5641 }, "geometry": { "type": "Point", "coordinates": [ 40.5641, 34.9708 ] } },
{ "type": "Feature", "properties": { "field_1": 4, "event_id_cnty": "SYR109693", "day": 31, "month": 12, "year": 2022, "location": "Menbij", "latitude": 36.5258, "longitude": 37.951 }, "geometry": { "type": "Point", "coordinates": [ 37.951, 36.5258 ] } },
{ "type": "Feature", "properties": { "field_1": 5, "event_id_cnty": "SYR109702", "day": 31, "month": 12, "year": 2022, "location": "Afrin", "latitude": 36.5111, "longitude": 36.8655 }, "geometry": { "type": "Point", "coordinates": [ 36.8655, 36.5111 ] } },
{ "type": "Feature", "properties": { "field_1": 6, "event_id_cnty": "SYR109707", "day": 31, "month": 12, "year": 2022, "location": "Ash Shula", "latitude": 35.1772, "longitude": 39.8457 }, "geometry": { "type": "Point", "coordinates": [ 39.8457, 35.1772 ] } },
{ "type": "Feature", "properties": { "field_1": 7, "event_id_cnty": "SYR109712", "day": 31, "month": 12, "year": 2022, "location": "Tadaf", "latitude": 36.3479, "longitude": 37.5294 }, "geometry": { "type": "Point", "coordinates": [ 37.5294, 36.3479 ] } },
{ "type": "Feature", "properties": { "field_1": 8, "event_id_cnty": "SYR109719", "day": 31, "month": 12, "year": 2022, "location": "Kafr Battikh", "latitude": 35.7819, "longitude": 36.7255 }, "geometry": { "type": "Point", "coordinates": [ 36.7255, 35.7819 ] } },
{ "type": "Feature", "properties": { "field_1": 9, "event_id_cnty": "SYR109726", "day": 31, "month": 12, "year": 2022, "location": "Taqad", "latitude": 36.1987, "longitude": 36.8698 }, "geometry": { "type": "Point", "coordinates": [ 36.8698, 36.1987 ] } },
{ "type": "Feature", "properties": { "field_1": 10, "event_id_cnty": "SYR109736", "day": 31, "month": 12, "year": 2022, "location": "Al Bab", "latitude": 36.3697, "longitude": 37.5149 }, "geometry": { "type": "Point", "coordinates": [ 37.5149, 36.3697 ] } },
{ "type": "Feature", "properties": { "field_1": 11, "event_id_cnty": "SYR109743", "day": 31, "month": 12, "year": 2022, "location": "Al Atila", "latitude": 36.1354, "longitude": 40.6838 }, "geometry": { "type": "Point", "coordinates": [ 40.6838, 36.1354 ] } },
{ "type": "Feature", "properties": { "field_1": 12, "event_id_cnty": "SYR109744", "day": 31, "month": 12, "year": 2022, "location": "Hreiji", "latitude": 35.3851, "longitude": 40.6149 }, "geometry": { "type": "Point", "coordinates": [ 40.6149, 35.3851 ] } },
{ "type": "Feature", "properties": { "field_1": 13, "event_id_cnty": "SYR109745", "day": 31, "month": 12, "year": 2022, "location": "Fadghami", "latitude": 35.9019, "longitude": 40.8873 }, "geometry": { "type": "Point", "coordinates": [ 40.8873, 35.9019 ] } },
{ "type": "Feature", "properties": { "field_1": 14, "event_id_cnty": "SYR109751", "day": 31, "month": 12, "year": 2022, "location": "Shadir", "latitude": 36.3687, "longitude": 36.8293 }, "geometry": { "type": "Point", "coordinates": [ 36.8293, 36.3687 ] } },
{ "type": "Feature", "properties": { "field_1": 15, "event_id_cnty": "SYR109758", "day": 31, "month": 12, "year": 2022, "location": "Afrin", "latitude": 36.5111, "longitude": 36.8655 }, "geometry": { "type": "Point", "coordinates": [ 36.8655, 36.5111 ] } },
{ "type": "Feature", "properties": { "field_1": 16, "event_id_cnty": "SYR109771", "day": 31, "month": 12, "year": 2022, "location": "Eastern Ghariyeh", "latitude": 32.6782, "longitude": 36.2581 }, "geometry": { "type": "Point", "coordinates": [ 36.2581, 32.6782 ] } },
{ "type": "Feature", "properties": { "field_1": 17, "event_id_cnty": "SYR109813", "day": 31, "month": 12, "year": 2022, "location": "Al-Rasafah", "latitude": 35.6288, "longitude": 38.7581 }, "geometry": { "type": "Point", "coordinates": [ 38.7581, 35.6288 ] } },
{ "type": "Feature", "properties": { "field_1": 18, "event_id_cnty": "SYR109820", "day": 31, "month": 12, "year": 2022, "location": "Shadadah", "latitude": 36.0534, "longitude": 40.7268 }, "geometry": { "type": "Point", "coordinates": [ 40.7268, 36.0534 ] } },
{ "type": "Feature", "properties": { "field_1": 19, "event_id_cnty": "SYR109848", "day": 31, "month": 12, "year": 2022, "location": "Bahfis", "latitude": 36.1838, "longitude": 36.9063 }, "geometry": { "type": "Point", "coordinates": [ 36.9063, 36.1838 ] } },
{ "type": "Feature", "properties": { "field_1": 20, "event_id_cnty": "SYR109849", "day": 31, "month": 12, "year": 2022, "location": "Kafr Noran", "latitude": 36.078, "longitude": 36.8322 }, "geometry": { "type": "Point", "coordinates": [ 36.8322, 36.078 ] } },
{ "type": "Feature", "properties": { "field_1": 21, "event_id_cnty": "SYR109850", "day": 31, "month": 12, "year": 2022, "location": "Nayrab", "latitude": 35.8692, "longitude": 36.7183 }, "geometry": { "type": "Point", "coordinates": [ 36.7183, 35.8692 ] } },
{ "type": "Feature", "properties": { "field_1": 22, "event_id_cnty": "SYR109851", "day": 31, "month": 12, "year": 2022, "location": "Taqad", "latitude": 36.1987, "longitude": 36.8698 }, "geometry": { "type": "Point", "coordinates": [ 36.8698, 36.1987 ] } },
{ "type": "Feature", "properties": { "field_1": 23, "event_id_cnty": "SYR109852", "day": 31, "month": 12, "year": 2022, "location": "Bara", "latitude": 35.686, "longitude": 36.5424 }, "geometry": { "type": "Point", "coordinates": [ 36.5424, 35.686 ] } },
{ "type": "Feature", "properties": { "field_1": 24, "event_id_cnty": "SYR109853", "day": 31, "month": 12, "year": 2022, "location": "Kansafra", "latitude": 35.6599, "longitude": 36.4849 }, "geometry": { "type": "Point", "coordinates": [ 36.4849, 35.6599 ] } },
{ "type": "Feature", "properties": { "field_1": 25, "event_id_cnty": "SYR109854", "day": 31, "month": 12, "year": 2022, "location": "Maaret Al Naasan", "latitude": 36.0351, "longitude": 36.8376 }, "geometry": { "type": "Point", "coordinates": [ 36.8376, 36.0351 ] } },
{ "type": "Feature", "properties": { "field_1": 26, "event_id_cnty": "SYR109875", "day": 31, "month": 12, "year": 2022, "location": "Tall Refaat", "latitude": 36.4726, "longitude": 37.0941 }, "geometry": { "type": "Point", "coordinates": [ 37.0941, 36.4726 ] } },
{ "type": "Feature", "properties": { "field_1": 27, "event_id_cnty": "SYR109883", "day": 31, "month": 12, "year": 2022, "location": "Bahsa", "latitude": 35.6799, "longitude": 36.2762 }, "geometry": { "type": "Point", "coordinates": [ 36.2762, 35.6799 ] } },
{ "type": "Feature", "properties": { "field_1": 28, "event_id_cnty": "SYR109884", "day": 31, "month": 12, "year": 2022, "location": "Barakeh", "latitude": 35.6744, "longitude": 36.2711 }, "geometry": { "type": "Point", "coordinates": [ 36.2711, 35.6744 ] } },
{ "type": "Feature", "properties": { "field_1": 29, "event_id_cnty": "SYR109885", "day": 31, "month": 12, "year": 2022, "location": "Jurin", "latitude": 35.6162, "longitude": 36.2693 }, "geometry": { "type": "Point", "coordinates": [ 36.2693, 35.6162 ] } },
{ "type": "Feature", "properties": { "field_1": 30, "event_id_cnty": "SYR109886", "day": 31, "month": 12, "year": 2022, "location": "Qalat Mirza", "latitude": 35.6563, "longitude": 36.2711 }, "geometry": { "type": "Point", "coordinates": [ 36.2711, 35.6563 ] } },
{ "type": "Feature", "properties": { "field_1": 31, "event_id_cnty": "SYR109887", "day": 31, "month": 12, "year": 2022, "location": "Regiment 46 - Military Base", "latitude": 36.1239, "longitude": 36.888 }, "geometry": { "type": "Point", "coordinates": [ 36.888, 36.1239 ] } },
{ "type": "Feature", "properties": { "field_1": 32, "event_id_cnty": "SYR109888", "day": 31, "month": 12, "year": 2022, "location": "Saraqab", "latitude": 35.8611, "longitude": 36.8061 }, "geometry": { "type": "Point", "coordinates": [ 36.8061, 35.8611 ] } },
{ "type": "Feature", "properties": { "field_1": 33, "event_id_cnty": "TUR28490", "day": 31, "month": 12, "year": 2022, "location": "Nusaybin", "latitude": 37.0707, "longitude": 41.2134 }, "geometry": { "type": "Point", "coordinates": [ 41.2134, 37.0707 ] } },
{ "type": "Feature", "properties": { "field_1": 34, "event_id_cnty": "SYR109947", "day": 31, "month": 12, "year": 2022, "location": "Al Shanan", "latitude": 34.9708, "longitude": 40.5641 }, "geometry": { "type": "Point", "coordinates": [ 40.5641, 34.9708 ] } },
{ "type": "Feature", "properties": { "field_1": 35, "event_id_cnty": "SYR109701", "day": 31, "month": 12, "year": 2022, "location": "Abul Nitel", "latitude": 35.4627, "longitude": 40.6659 }, "geometry": { "type": "Point", "coordinates": [ 40.6659, 35.4627 ] } },
{ "type": "Feature", "properties": { "field_1": 36, "event_id_cnty": "SYR109617", "day": 30, "month": 12, "year": 2022, "location": "Shadadah", "latitude": 36.0534, "longitude": 40.7268 }, "geometry": { "type": "Point", "coordinates": [ 40.7268, 36.0534 ] } },
{ "type": "Feature", "properties": { "field_1": 37, "event_id_cnty": "SYR109619", "day": 30, "month": 12, "year": 2022, "location": "Aziziyeh", "latitude": 36.7907, "longitude": 39.9787 }, "geometry": { "type": "Point", "coordinates": [ 39.9787, 36.7907 ] } },
{ "type": "Feature", "properties": { "field_1": 38, "event_id_cnty": "SYR109620", "day": 30, "month": 12, "year": 2022, "location": "Khasham", "latitude": 35.2984, "longitude": 40.2894 }, "geometry": { "type": "Point", "coordinates": [ 40.2894, 35.2984 ] } },
{ "type": "Feature", "properties": { "field_1": 39, "event_id_cnty": "SYR109621", "day": 30, "month": 12, "year": 2022, "location": "Regiment 46 - Military Base", "latitude": 36.1239, "longitude": 36.888 }, "geometry": { "type": "Point", "coordinates": [ 36.888, 36.1239 ] } },
{ "type": "Feature", "properties": { "field_1": 40, "event_id_cnty": "SYR109622", "day": 30, "month": 12, "year": 2022, "location": "Basufan", "latitude": 36.3411, "longitude": 36.8736 }, "geometry": { "type": "Point", "coordinates": [ 36.8736, 36.3411 ] } },
{ "type": "Feature", "properties": { "field_1": 41, "event_id_cnty": "SYR109623", "day": 30, "month": 12, "year": 2022, "location": "Maaret Al Naasan", "latitude": 36.0351, "longitude": 36.8376 }, "geometry": { "type": "Point", "coordinates": [ 36.8376, 36.0351 ] } },
{ "type": "Feature", "properties": { "field_1": 42, "event_id_cnty": "SYR109625", "day": 30, "month": 12, "year": 2022, "location": "Tal Hmis", "latitude": 36.7561, "longitude": 41.3975 }, "geometry": { "type": "Point", "coordinates": [ 41.3975, 36.7561 ] } },
{ "type": "Feature", "properties": { "field_1": 43, "event_id_cnty": "SYR109818", "day": 30, "month": 12, "year": 2022, "location": "Al-Rasafah", "latitude": 35.6288, "longitude": 38.7581 }, "geometry": { "type": "Point", "coordinates": [ 38.7581, 35.6288 ] } },
{ "type": "Feature", "properties": { "field_1": 44, "event_id_cnty": "SYR109709", "day": 30, "month": 12, "year": 2022, "location": "Tadmor", "latitude": 34.5656, "longitude": 38.2877 }, "geometry": { "type": "Point", "coordinates": [ 38.2877, 34.5656 ] } },
{ "type": "Feature", "properties": { "field_1": 45, "event_id_cnty": "SYR109807", "day": 30, "month": 12, "year": 2022, "location": "Al-Teem - Oil Field", "latitude": 35.2035, "longitude": 40.0829 }, "geometry": { "type": "Point", "coordinates": [ 40.0829, 35.2035 ] } },
{ "type": "Feature", "properties": { "field_1": 46, "event_id_cnty": "TUR28384", "day": 30, "month": 12, "year": 2022, "location": "Cukurambar", "latitude": 39.9056, "longitude": 32.8003 }, "geometry": { "type": "Point", "coordinates": [ 32.8003, 39.9056 ] } },
{ "type": "Feature", "properties": { "field_1": 47, "event_id_cnty": "SYR109305", "day": 29, "month": 12, "year": 2022, "location": "Daret Azza", "latitude": 36.285, "longitude": 36.8511 }, "geometry": { "type": "Point", "coordinates": [ 36.8511, 36.285 ] } },
{ "type": "Feature", "properties": { "field_1": 48, "event_id_cnty": "SYR109306", "day": 29, "month": 12, "year": 2022, "location": "Ruwaiha", "latitude": 35.7378, "longitude": 36.695 }, "geometry": { "type": "Point", "coordinates": [ 36.695, 35.7378 ] } },
{ "type": "Feature", "properties": { "field_1": 49, "event_id_cnty": "SYR109397", "day": 29, "month": 12, "year": 2022, "location": "Karama", "latitude": 35.8699, "longitude": 39.2813 }, "geometry": { "type": "Point", "coordinates": [ 39.2813, 35.8699 ] } },
{ "type": "Feature", "properties": { "field_1": 50, "event_id_cnty": "SYR109398", "day": 29, "month": 12, "year": 2022, "location": "Mhemideh", "latitude": 35.4429, "longitude": 40.0862 }, "geometry": { "type": "Point", "coordinates": [ 40.0862, 35.4429 ] } },
{ "type": "Feature", "properties": { "field_1": 51, "event_id_cnty": "SYR109401", "day": 29, "month": 12, "year": 2022, "location": "Kafr Noran", "latitude": 36.078, "longitude": 36.8322 }, "geometry": { "type": "Point", "coordinates": [ 36.8322, 36.078 ] } },
{ "type": "Feature", "properties": { "field_1": 52, "event_id_cnty": "SYR109402", "day": 29, "month": 12, "year": 2022, "location": "Safya", "latitude": 36.6085, "longitude": 40.7695 }, "geometry": { "type": "Point", "coordinates": [ 40.7695, 36.6085 ] } },
{ "type": "Feature", "properties": { "field_1": 53, "event_id_cnty": "SYR109403", "day": 29, "month": 12, "year": 2022, "location": "Shaykh Sulayman", "latitude": 36.2761, "longitude": 36.9096 }, "geometry": { "type": "Point", "coordinates": [ 36.9096, 36.2761 ] } },
{ "type": "Feature", "properties": { "field_1": 54, "event_id_cnty": "SYR109404", "day": 29, "month": 12, "year": 2022, "location": "Idleb", "latitude": 35.929, "longitude": 36.6353 }, "geometry": { "type": "Point", "coordinates": [ 36.6353, 35.929 ] } },
{ "type": "Feature", "properties": { "field_1": 55, "event_id_cnty": "SYR109406", "day": 29, "month": 12, "year": 2022, "location": "Regiment 46 - Military Base", "latitude": 36.1239, "longitude": 36.888 }, "geometry": { "type": "Point", "coordinates": [ 36.888, 36.1239 ] } },
{ "type": "Feature", "properties": { "field_1": 56, "event_id_cnty": "SYR109407", "day": 29, "month": 12, "year": 2022, "location": "Tuways", "latitude": 36.434, "longitude": 37.3024 }, "geometry": { "type": "Point", "coordinates": [ 37.3024, 36.434 ] } },
{ "type": "Feature", "properties": { "field_1": 57, "event_id_cnty": "SYR109419", "day": 29, "month": 12, "year": 2022, "location": "Ghazawiyah", "latitude": 36.3768, "longitude": 36.8417 }, "geometry": { "type": "Point", "coordinates": [ 36.8417, 36.3768 ] } },
{ "type": "Feature", "properties": { "field_1": 58, "event_id_cnty": "SYR109421", "day": 29, "month": 12, "year": 2022, "location": "Kafr Amma", "latitude": 36.1409, "longitude": 36.8735 }, "geometry": { "type": "Point", "coordinates": [ 36.8735, 36.1409 ] } },
{ "type": "Feature", "properties": { "field_1": 59, "event_id_cnty": "SYR109422", "day": 29, "month": 12, "year": 2022, "location": "Termanin", "latitude": 36.2284, "longitude": 36.8152 }, "geometry": { "type": "Point", "coordinates": [ 36.8152, 36.2284 ] } },
{ "type": "Feature", "properties": { "field_1": 60, "event_id_cnty": "SYR109423", "day": 29, "month": 12, "year": 2022, "location": "Daret Azza", "latitude": 36.285, "longitude": 36.8511 }, "geometry": { "type": "Point", "coordinates": [ 36.8511, 36.285 ] } },
{ "type": "Feature", "properties": { "field_1": 61, "event_id_cnty": "SYR109425", "day": 29, "month": 12, "year": 2022, "location": "Basufan", "latitude": 36.3411, "longitude": 36.8736 }, "geometry": { "type": "Point", "coordinates": [ 36.8736, 36.3411 ] } },
{ "type": "Feature", "properties": { "field_1": 62, "event_id_cnty": "SYR109427", "day": 29, "month": 12, "year": 2022, "location": "Kafr Aleppo", "latitude": 36.0598, "longitude": 36.8695 }, "geometry": { "type": "Point", "coordinates": [ 36.8695, 36.0598 ] } },
{ "type": "Feature", "properties": { "field_1": 63, "event_id_cnty": "SYR109429", "day": 29, "month": 12, "year": 2022, "location": "Abu Rasin", "latitude": 36.8465, "longitude": 40.3284 }, "geometry": { "type": "Point", "coordinates": [ 40.3284, 36.8465 ] } },
{ "type": "Feature", "properties": { "field_1": 64, "event_id_cnty": "SYR109430", "day": 29, "month": 12, "year": 2022, "location": "Abu Rasin", "latitude": 36.8465, "longitude": 40.3284 }, "geometry": { "type": "Point", "coordinates": [ 40.3284, 36.8465 ] } },
{ "type": "Feature", "properties": { "field_1": 65, "event_id_cnty": "SYR109431", "day": 29, "month": 12, "year": 2022, "location": "Dada Abdal", "latitude": 36.8908, "longitude": 40.3375 }, "geometry": { "type": "Point", "coordinates": [ 40.3375, 36.8908 ] } },
{ "type": "Feature", "properties": { "field_1": 66, "event_id_cnty": "SYR109432", "day": 29, "month": 12, "year": 2022, "location": "Abu Rasin", "latitude": 36.8465, "longitude": 40.3284 }, "geometry": { "type": "Point", "coordinates": [ 40.3284, 36.8465 ] } },
{ "type": "Feature", "properties": { "field_1": 67, "event_id_cnty": "SYR109440", "day": 29, "month": 12, "year": 2022, "location": "Um Harmala", "latitude": 36.6589, "longitude": 40.0062 }, "geometry": { "type": "Point", "coordinates": [ 40.0062, 36.6589 ] } },
{ "type": "Feature", "properties": { "field_1": 68, "event_id_cnty": "SYR109441", "day": 29, "month": 12, "year": 2022, "location": "Busraton", "latitude": 36.2028, "longitude": 36.9104 }, "geometry": { "type": "Point", "coordinates": [ 36.9104, 36.2028 ] } },
{ "type": "Feature", "properties": { "field_1": 69, "event_id_cnty": "SYR109451", "day": 29, "month": 12, "year": 2022, "location": "Qebtan al Jabal", "latitude": 36.2637, "longitude": 36.9487 }, "geometry": { "type": "Point", "coordinates": [ 36.9487, 36.2637 ] } },
{ "type": "Feature", "properties": { "field_1": 70, "event_id_cnty": "SYR109458", "day": 29, "month": 12, "year": 2022, "location": "Mare'", "latitude": 36.4827, "longitude": 37.1965 }, "geometry": { "type": "Point", "coordinates": [ 37.1965, 36.4827 ] } },
{ "type": "Feature", "properties": { "field_1": 71, "event_id_cnty": "SYR109459", "day": 29, "month": 12, "year": 2022, "location": "Al-Malikeyyeh", "latitude": 37.1745, "longitude": 42.1403 }, "geometry": { "type": "Point", "coordinates": [ 42.1403, 37.1745 ] } },
{ "type": "Feature", "properties": { "field_1": 72, "event_id_cnty": "SYR109460", "day": 29, "month": 12, "year": 2022, "location": "Shiheil", "latitude": 35.092, "longitude": 40.4543 }, "geometry": { "type": "Point", "coordinates": [ 40.4543, 35.092 ] } },
{ "type": "Feature", "properties": { "field_1": 73, "event_id_cnty": "SYR109461", "day": 29, "month": 12, "year": 2022, "location": "Ein Issa", "latitude": 36.3837, "longitude": 38.8628 }, "geometry": { "type": "Point", "coordinates": [ 38.8628, 36.3837 ] } },
{ "type": "Feature", "properties": { "field_1": 74, "event_id_cnty": "SYR109511", "day": 29, "month": 12, "year": 2022, "location": "Ithariyah", "latitude": 35.3652, "longitude": 37.7886 }, "geometry": { "type": "Point", "coordinates": [ 37.7886, 35.3652 ] } },
{ "type": "Feature", "properties": { "field_1": 75, "event_id_cnty": "SYR109512", "day": 29, "month": 12, "year": 2022, "location": "Tall al Jabiyah", "latitude": 32.9199, "longitude": 36.0 }, "geometry": { "type": "Point", "coordinates": [ 36.0, 32.9199 ] } },
{ "type": "Feature", "properties": { "field_1": 76, "event_id_cnty": "SYR109513", "day": 29, "month": 12, "year": 2022, "location": "Tal Hmis", "latitude": 36.7561, "longitude": 41.3975 }, "geometry": { "type": "Point", "coordinates": [ 41.3975, 36.7561 ] } },
{ "type": "Feature", "properties": { "field_1": 77, "event_id_cnty": "SYR109514", "day": 29, "month": 12, "year": 2022, "location": "Jdaidat Kahit", "latitude": 35.8672, "longitude": 39.3399 }, "geometry": { "type": "Point", "coordinates": [ 39.3399, 35.8672 ] } },
{ "type": "Feature", "properties": { "field_1": 78, "event_id_cnty": "SYR109613", "day": 29, "month": 12, "year": 2022, "location": "Kirzele", "latitude": 36.4672, "longitude": 36.8872 }, "geometry": { "type": "Point", "coordinates": [ 36.8872, 36.4672 ] } },
{ "type": "Feature", "properties": { "field_1": 79, "event_id_cnty": "SYR109614", "day": 29, "month": 12, "year": 2022, "location": "Da'el", "latitude": 32.7544, "longitude": 36.1311 }, "geometry": { "type": "Point", "coordinates": [ 36.1311, 32.7544 ] } },
{ "type": "Feature", "properties": { "field_1": 80, "event_id_cnty": "SYR109706", "day": 29, "month": 12, "year": 2022, "location": "Tadmor", "latitude": 34.5656, "longitude": 38.2877 }, "geometry": { "type": "Point", "coordinates": [ 38.2877, 34.5656 ] } },
{ "type": "Feature", "properties": { "field_1": 81, "event_id_cnty": "SYR109731", "day": 29, "month": 12, "year": 2022, "location": "Mayselun", "latitude": 36.0551, "longitude": 38.9458 }, "geometry": { "type": "Point", "coordinates": [ 38.9458, 36.0551 ] } },
{ "type": "Feature", "properties": { "field_1": 82, "event_id_cnty": "SYR109732", "day": 29, "month": 12, "year": 2022, "location": "Ar-Raqqa", "latitude": 35.9428, "longitude": 39.0519 }, "geometry": { "type": "Point", "coordinates": [ 39.0519, 35.9428 ] } },
{ "type": "Feature", "properties": { "field_1": 83, "event_id_cnty": "SYR109396", "day": 29, "month": 12, "year": 2022, "location": "Hajin", "latitude": 34.6869, "longitude": 40.8392 }, "geometry": { "type": "Point", "coordinates": [ 40.8392, 34.6869 ] } },
{ "type": "Feature", "properties": { "field_1": 84, "event_id_cnty": "SYR109612", "day": 29, "month": 12, "year": 2022, "location": "Sarmada", "latitude": 36.1866, "longitude": 36.7239 }, "geometry": { "type": "Point", "coordinates": [ 36.7239, 36.1866 ] } },
{ "type": "Feature", "properties": { "field_1": 85, "event_id_cnty": "SYR109405", "day": 29, "month": 12, "year": 2022, "location": "Ein Ayshaa", "latitude": 33.1905, "longitude": 35.9225 }, "geometry": { "type": "Point", "coordinates": [ 35.9225, 33.1905 ] } },
{ "type": "Feature", "properties": { "field_1": 86, "event_id_cnty": "SYR109246", "day": 28, "month": 12, "year": 2022, "location": "Regiment 111 Army Base", "latitude": 36.2586, "longitude": 36.8952 }, "geometry": { "type": "Point", "coordinates": [ 36.8952, 36.2586 ] } },
{ "type": "Feature", "properties": { "field_1": 87, "event_id_cnty": "SYR109248", "day": 28, "month": 12, "year": 2022, "location": "Olan", "latitude": 36.4182, "longitude": 37.4842 }, "geometry": { "type": "Point", "coordinates": [ 37.4842, 36.4182 ] } },
{ "type": "Feature", "properties": { "field_1": 88, "event_id_cnty": "SYR109250", "day": 28, "month": 12, "year": 2022, "location": "Mare'", "latitude": 36.4827, "longitude": 37.1965 }, "geometry": { "type": "Point", "coordinates": [ 37.1965, 36.4827 ] } },
{ "type": "Feature", "properties": { "field_1": 89, "event_id_cnty": "SYR109251", "day": 28, "month": 12, "year": 2022, "location": "Bara", "latitude": 35.686, "longitude": 36.5424 }, "geometry": { "type": "Point", "coordinates": [ 36.5424, 35.686 ] } },
{ "type": "Feature", "properties": { "field_1": 90, "event_id_cnty": "SYR109252", "day": 28, "month": 12, "year": 2022, "location": "Daret Azza", "latitude": 36.285, "longitude": 36.8511 }, "geometry": { "type": "Point", "coordinates": [ 36.8511, 36.285 ] } },
{ "type": "Feature", "properties": { "field_1": 91, "event_id_cnty": "SYR109253", "day": 28, "month": 12, "year": 2022, "location": "Ftireh", "latitude": 35.6097, "longitude": 36.4853 }, "geometry": { "type": "Point", "coordinates": [ 36.4853, 35.6097 ] } },
{ "type": "Feature", "properties": { "field_1": 92, "event_id_cnty": "SYR109254", "day": 28, "month": 12, "year": 2022, "location": "Kafr Noran", "latitude": 36.078, "longitude": 36.8322 }, "geometry": { "type": "Point", "coordinates": [ 36.8322, 36.078 ] } },
{ "type": "Feature", "properties": { "field_1": 93, "event_id_cnty": "SYR109255", "day": 28, "month": 12, "year": 2022, "location": "Ain al Arab", "latitude": 36.8891, "longitude": 38.3521 }, "geometry": { "type": "Point", "coordinates": [ 38.3521, 36.8891 ] } },
{ "type": "Feature", "properties": { "field_1": 94, "event_id_cnty": "SYR109264", "day": 28, "month": 12, "year": 2022, "location": "Al Dibs", "latitude": 36.4594, "longitude": 38.7597 }, "geometry": { "type": "Point", "coordinates": [ 38.7597, 36.4594 ] } },
{ "type": "Feature", "properties": { "field_1": 95, "event_id_cnty": "SYR109276", "day": 28, "month": 12, "year": 2022, "location": "Ein Issa", "latitude": 36.3837, "longitude": 38.8628 }, "geometry": { "type": "Point", "coordinates": [ 38.8628, 36.3837 ] } },
{ "type": "Feature", "properties": { "field_1": 96, "event_id_cnty": "SYR109281", "day": 28, "month": 12, "year": 2022, "location": "Tal Jijin", "latitude": 36.4108, "longitude": 37.3411 }, "geometry": { "type": "Point", "coordinates": [ 37.3411, 36.4108 ] } },
{ "type": "Feature", "properties": { "field_1": 97, "event_id_cnty": "SYR109282", "day": 28, "month": 12, "year": 2022, "location": "Tal Madeeq", "latitude": 36.4094, "longitude": 37.2846 }, "geometry": { "type": "Point", "coordinates": [ 37.2846, 36.4094 ] } },
{ "type": "Feature", "properties": { "field_1": 98, "event_id_cnty": "SYR109283", "day": 28, "month": 12, "year": 2022, "location": "Abu Rasin", "latitude": 36.8465, "longitude": 40.3284 }, "geometry": { "type": "Point", "coordinates": [ 40.3284, 36.8465 ] } },
{ "type": "Feature", "properties": { "field_1": 99, "event_id_cnty": "SYR109291", "day": 28, "month": 12, "year": 2022, "location": "Dar Al-Kabira", "latitude": 35.6068, "longitude": 36.5168 }, "geometry": { "type": "Point", "coordinates": [ 36.5168, 35.6068 ] } },
{ "type": "Feature", "properties": { "field_1": 100, "event_id_cnty": "SYR109299", "day": 28, "month": 12, "year": 2022, "location": "Al-Malikeyyeh", "latitude": 37.1745, "longitude": 42.1403 }, "geometry": { "type": "Point", "coordinates": [ 42.1403, 37.1745 ] } },
{ "type": "Feature", "properties": { "field_1": 101, "event_id_cnty": "SYR109303", "day": 28, "month": 12, "year": 2022, "location": "Jasim", "latitude": 32.9912, "longitude": 36.0602 }, "geometry": { "type": "Point", "coordinates": [ 36.0602, 32.9912 ] } },
{ "type": "Feature", "properties": { "field_1": 102, "event_id_cnty": "SYR109249", "day": 28, "month": 12, "year": 2022, "location": "Bisr Elharir", "latitude": 32.8389, "longitude": 36.3404 }, "geometry": { "type": "Point", "coordinates": [ 36.3404, 32.8389 ] } },
{ "type": "Feature", "properties": { "field_1": 103, "event_id_cnty": "SYR109294", "day": 28, "month": 12, "year": 2022, "location": "As-Salamiyeh", "latitude": 35.0113, "longitude": 37.051 }, "geometry": { "type": "Point", "coordinates": [ 37.051, 35.0113 ] } },
{ "type": "Feature", "properties": { "field_1": 104, "event_id_cnty": "SYR109300", "day": 28, "month": 12, "year": 2022, "location": "Tafas", "latitude": 32.7362, "longitude": 36.0673 }, "geometry": { "type": "Point", "coordinates": [ 36.0673, 32.7362 ] } },
{ "type": "Feature", "properties": { "field_1": 105, "event_id_cnty": "SYR109220", "day": 27, "month": 12, "year": 2022, "location": "Hawayej Bumasaa", "latitude": 35.462, "longitude": 40.0795 }, "geometry": { "type": "Point", "coordinates": [ 40.0795, 35.462 ] } },
{ "type": "Feature", "properties": { "field_1": 106, "event_id_cnty": "SYR109222", "day": 27, "month": 12, "year": 2022, "location": "Ftireh", "latitude": 35.6097, "longitude": 36.4853 }, "geometry": { "type": "Point", "coordinates": [ 36.4853, 35.6097 ] } },
{ "type": "Feature", "properties": { "field_1": 107, "event_id_cnty": "SYR109223", "day": 27, "month": 12, "year": 2022, "location": "Kansafra", "latitude": 35.6599, "longitude": 36.4849 }, "geometry": { "type": "Point", "coordinates": [ 36.4849, 35.6599 ] } },
{ "type": "Feature", "properties": { "field_1": 108, "event_id_cnty": "SYR109224", "day": 27, "month": 12, "year": 2022, "location": "Majdaliya", "latitude": 35.8345, "longitude": 36.6775 }, "geometry": { "type": "Point", "coordinates": [ 36.6775, 35.8345 ] } },
{ "type": "Feature", "properties": { "field_1": 109, "event_id_cnty": "SYR109225", "day": 27, "month": 12, "year": 2022, "location": "A'Sforiyeh", "latitude": 36.6242, "longitude": 40.363 }, "geometry": { "type": "Point", "coordinates": [ 40.363, 36.6242 ] } },
{ "type": "Feature", "properties": { "field_1": 110, "event_id_cnty": "SYR109226", "day": 27, "month": 12, "year": 2022, "location": "Kozliyeh", "latitude": 36.6249, "longitude": 40.2253 }, "geometry": { "type": "Point", "coordinates": [ 40.2253, 36.6249 ] } },
{ "type": "Feature", "properties": { "field_1": 111, "event_id_cnty": "SYR109227", "day": 27, "month": 12, "year": 2022, "location": "Msheirfeh Remo", "latitude": 36.6057, "longitude": 40.1223 }, "geometry": { "type": "Point", "coordinates": [ 40.1223, 36.6057 ] } },
{ "type": "Feature", "properties": { "field_1": 112, "event_id_cnty": "SYR109228", "day": 27, "month": 12, "year": 2022, "location": "Tal Al-Laban", "latitude": 36.614, "longitude": 40.2018 }, "geometry": { "type": "Point", "coordinates": [ 40.2018, 36.614 ] } },
{ "type": "Feature", "properties": { "field_1": 113, "event_id_cnty": "SYR109229", "day": 27, "month": 12, "year": 2022, "location": "Al Asadiyah", "latitude": 36.7758, "longitude": 40.1283 }, "geometry": { "type": "Point", "coordinates": [ 40.1283, 36.7758 ] } },
{ "type": "Feature", "properties": { "field_1": 114, "event_id_cnty": "SYR109230", "day": 27, "month": 12, "year": 2022, "location": "Eastern Tall Ward", "latitude": 36.7975, "longitude": 40.3465 }, "geometry": { "type": "Point", "coordinates": [ 40.3465, 36.7975 ] } },
{ "type": "Feature", "properties": { "field_1": 115, "event_id_cnty": "SYR109231", "day": 27, "month": 12, "year": 2022, "location": "Um Harmala", "latitude": 36.6589, "longitude": 40.0062 }, "geometry": { "type": "Point", "coordinates": [ 40.0062, 36.6589 ] } },
{ "type": "Feature", "properties": { "field_1": 116, "event_id_cnty": "SYR109232", "day": 27, "month": 12, "year": 2022, "location": "Regiment 46 - Military Base", "latitude": 36.1239, "longitude": 36.888 }, "geometry": { "type": "Point", "coordinates": [ 36.888, 36.1239 ] } },
{ "type": "Feature", "properties": { "field_1": 117, "event_id_cnty": "SYR109233", "day": 27, "month": 12, "year": 2022, "location": "Hazarin", "latitude": 35.5998, "longitude": 36.5267 }, "geometry": { "type": "Point", "coordinates": [ 36.5267, 35.5998 ] } },
{ "type": "Feature", "properties": { "field_1": 118, "event_id_cnty": "SYR109234", "day": 27, "month": 12, "year": 2022, "location": "Tadaf", "latitude": 36.3479, "longitude": 37.5294 }, "geometry": { "type": "Point", "coordinates": [ 37.5294, 36.3479 ] } },
{ "type": "Feature", "properties": { "field_1": 119, "event_id_cnty": "SYR109235", "day": 27, "month": 12, "year": 2022, "location": "Jarablus", "latitude": 36.8145, "longitude": 38.0099 }, "geometry": { "type": "Point", "coordinates": [ 38.0099, 36.8145 ] } },
{ "type": "Feature", "properties": { "field_1": 120, "event_id_cnty": "SYR109236", "day": 27, "month": 12, "year": 2022, "location": "As-Sanamayn", "latitude": 33.0711, "longitude": 36.1833 }, "geometry": { "type": "Point", "coordinates": [ 36.1833, 33.0711 ] } },
{ "type": "Feature", "properties": { "field_1": 121, "event_id_cnty": "SYR109237", "day": 27, "month": 12, "year": 2022, "location": "Mahjeh", "latitude": 32.9583, "longitude": 36.2222 }, "geometry": { "type": "Point", "coordinates": [ 36.2222, 32.9583 ] } },
{ "type": "Feature", "properties": { "field_1": 122, "event_id_cnty": "SYR109238", "day": 27, "month": 12, "year": 2022, "location": "Al-Na'ema", "latitude": 32.6334, "longitude": 36.1616 }, "geometry": { "type": "Point", "coordinates": [ 36.1616, 32.6334 ] } },
{ "type": "Feature", "properties": { "field_1": 123, "event_id_cnty": "SYR109239", "day": 27, "month": 12, "year": 2022, "location": "Jizeh", "latitude": 32.5684, "longitude": 36.3154 }, "geometry": { "type": "Point", "coordinates": [ 36.3154, 32.5684 ] } },
{ "type": "Feature", "properties": { "field_1": 124, "event_id_cnty": "SYR109240", "day": 27, "month": 12, "year": 2022, "location": "Nawa", "latitude": 32.8882, "longitude": 36.041 }, "geometry": { "type": "Point", "coordinates": [ 36.041, 32.8882 ] } },
{ "type": "Feature", "properties": { "field_1": 125, "event_id_cnty": "SYR109221", "day": 27, "month": 12, "year": 2022, "location": "Al Tufahiya", "latitude": 35.7806, "longitude": 35.992 }, "geometry": { "type": "Point", "coordinates": [ 35.992, 35.7806 ] } },
{ "type": "Feature", "properties": { "field_1": 126, "event_id_cnty": "SYR109754", "day": 27, "month": 12, "year": 2022, "location": "Aleppo", "latitude": 36.206, "longitude": 37.1524 }, "geometry": { "type": "Point", "coordinates": [ 37.1524, 36.206 ] } },
{ "type": "Feature", "properties": { "field_1": 127, "event_id_cnty": "SYR109901", "day": 26, "month": 12, "year": 2022, "location": "Busra Esh-Sham", "latitude": 32.5146, "longitude": 36.4779 }, "geometry": { "type": "Point", "coordinates": [ 36.4779, 32.5146 ] } },
{ "type": "Feature", "properties": { "field_1": 128, "event_id_cnty": "SYR109903", "day": 26, "month": 12, "year": 2022, "location": "Basufan", "latitude": 36.3411, "longitude": 36.8736 }, "geometry": { "type": "Point", "coordinates": [ 36.8736, 36.3411 ] } },
{ "type": "Feature", "properties": { "field_1": 129, "event_id_cnty": "SYR109904", "day": 26, "month": 12, "year": 2022, "location": "Regiment 46 - Military Base", "latitude": 36.1239, "longitude": 36.888 }, "geometry": { "type": "Point", "coordinates": [ 36.888, 36.1239 ] } },
{ "type": "Feature", "properties": { "field_1": 130, "event_id_cnty": "SYR109905", "day": 26, "month": 12, "year": 2022, "location": "Nahj", "latitude": 32.7037, "longitude": 35.9881 }, "geometry": { "type": "Point", "coordinates": [ 35.9881, 32.7037 ] } },
{ "type": "Feature", "properties": { "field_1": 131, "event_id_cnty": "SYR109907", "day": 26, "month": 12, "year": 2022, "location": "As-Sanamayn", "latitude": 33.0711, "longitude": 36.1833 }, "geometry": { "type": "Point", "coordinates": [ 36.1833, 33.0711 ] } },
{ "type": "Feature", "properties": { "field_1": 132, "event_id_cnty": "SYR109908", "day": 26, "month": 12, "year": 2022, "location": "Al-Na'ema", "latitude": 32.6334, "longitude": 36.1616 }, "geometry": { "type": "Point", "coordinates": [ 36.1616, 32.6334 ] } },
{ "type": "Feature", "properties": { "field_1": 133, "event_id_cnty": "SYR109912", "day": 26, "month": 12, "year": 2022, "location": "Shiheil", "latitude": 35.092, "longitude": 40.4543 }, "geometry": { "type": "Point", "coordinates": [ 40.4543, 35.092 ] } },
{ "type": "Feature", "properties": { "field_1": 134, "event_id_cnty": "SYR109913", "day": 26, "month": 12, "year": 2022, "location": "Tell Abiad", "latitude": 36.6978, "longitude": 38.9548 }, "geometry": { "type": "Point", "coordinates": [ 38.9548, 36.6978 ] } },
{ "type": "Feature", "properties": { "field_1": 135, "event_id_cnty": "SYR109900", "day": 26, "month": 12, "year": 2022, "location": "Ar-Raqqa - Al-Dar'eiyah", "latitude": 35.9607, "longitude": 38.9854 }, "geometry": { "type": "Point", "coordinates": [ 38.9854, 35.9607 ] } },
{ "type": "Feature", "properties": { "field_1": 136, "event_id_cnty": "SYR109906", "day": 26, "month": 12, "year": 2022, "location": "Eastern Ghariyeh", "latitude": 32.6782, "longitude": 36.2581 }, "geometry": { "type": "Point", "coordinates": [ 36.2581, 32.6782 ] } },
{ "type": "Feature", "properties": { "field_1": 137, "event_id_cnty": "SYR109909", "day": 26, "month": 12, "year": 2022, "location": "Gharanij", "latitude": 34.7863, "longitude": 40.7181 }, "geometry": { "type": "Point", "coordinates": [ 40.7181, 34.7863 ] } },
{ "type": "Feature", "properties": { "field_1": 138, "event_id_cnty": "SYR109910", "day": 26, "month": 12, "year": 2022, "location": "Jasmi", "latitude": 35.5194, "longitude": 40.6883 }, "geometry": { "type": "Point", "coordinates": [ 40.6883, 35.5194 ] } },
{ "type": "Feature", "properties": { "field_1": 139, "event_id_cnty": "SYR109911", "day": 26, "month": 12, "year": 2022, "location": "Al-Hawayij", "latitude": 35.0574, "longitude": 40.4924 }, "geometry": { "type": "Point", "coordinates": [ 40.4924, 35.0574 ] } },
{ "type": "Feature", "properties": { "field_1": 140, "event_id_cnty": "SYR109914", "day": 26, "month": 12, "year": 2022, "location": "Al-Rasafah", "latitude": 35.6288, "longitude": 38.7581 }, "geometry": { "type": "Point", "coordinates": [ 38.7581, 35.6288 ] } },
{ "type": "Feature", "properties": { "field_1": 141, "event_id_cnty": "SYR109916", "day": 26, "month": 12, "year": 2022, "location": "Sha'ab", "latitude": 32.5277, "longitude": 36.9711 }, "geometry": { "type": "Point", "coordinates": [ 36.9711, 32.5277 ] } },
{ "type": "Feature", "properties": { "field_1": 142, "event_id_cnty": "SYR109920", "day": 26, "month": 12, "year": 2022, "location": "Tal Shihab", "latitude": 32.6892, "longitude": 35.9845 }, "geometry": { "type": "Point", "coordinates": [ 35.9845, 32.6892 ] } },
{ "type": "Feature", "properties": { "field_1": 143, "event_id_cnty": "SYR109925", "day": 26, "month": 12, "year": 2022, "location": "Al-Hasakeh", "latitude": 36.5054, "longitude": 40.7429 }, "geometry": { "type": "Point", "coordinates": [ 40.7429, 36.5054 ] } },
{ "type": "Feature", "properties": { "field_1": 144, "event_id_cnty": "SYR110128", "day": 26, "month": 12, "year": 2022, "location": "Al Qusayr", "latitude": 34.5078, "longitude": 36.5803 }, "geometry": { "type": "Point", "coordinates": [ 36.5803, 34.5078 ] } },
{ "type": "Feature", "properties": { "field_1": 145, "event_id_cnty": "SYR110130", "day": 26, "month": 12, "year": 2022, "location": "Al Dab'a", "latitude": 34.5505, "longitude": 36.6133 }, "geometry": { "type": "Point", "coordinates": [ 36.6133, 34.5505 ] } },
{ "type": "Feature", "properties": { "field_1": 146, "event_id_cnty": "SYR110157", "day": 26, "month": 12, "year": 2022, "location": "Burj Haydar", "latitude": 36.343, "longitude": 36.9029 }, "geometry": { "type": "Point", "coordinates": [ 36.9029, 36.343 ] } },
{ "type": "Feature", "properties": { "field_1": 147, "event_id_cnty": "SYR110161", "day": 26, "month": 12, "year": 2022, "location": "Mashhad Ruhin", "latitude": 36.2691, "longitude": 36.7463 }, "geometry": { "type": "Point", "coordinates": [ 36.7463, 36.2691 ] } },
{ "type": "Feature", "properties": { "field_1": 148, "event_id_cnty": "SYR110189", "day": 26, "month": 12, "year": 2022, "location": "Deir-ez-Zor", "latitude": 35.3319, "longitude": 40.1461 }, "geometry": { "type": "Point", "coordinates": [ 40.1461, 35.3319 ] } },
{ "type": "Feature", "properties": { "field_1": 149, "event_id_cnty": "SYR110155", "day": 26, "month": 12, "year": 2022, "location": "Al Tabqa", "latitude": 35.8302, "longitude": 38.54 }, "geometry": { "type": "Point", "coordinates": [ 38.54, 35.8302 ] } },
{ "type": "Feature", "properties": { "field_1": 150, "event_id_cnty": "SYR110158", "day": 26, "month": 12, "year": 2022, "location": "Brad", "latitude": 36.3849, "longitude": 36.8981 }, "geometry": { "type": "Point", "coordinates": [ 36.8981, 36.3849 ] } },
{ "type": "Feature", "properties": { "field_1": 151, "event_id_cnty": "SYR109183", "day": 25, "month": 12, "year": 2022, "location": "Abu Hamam", "latitude": 34.8351, "longitude": 40.6682 }, "geometry": { "type": "Point", "coordinates": [ 40.6682, 34.8351 ] } },
{ "type": "Feature", "properties": { "field_1": 152, "event_id_cnty": "SYR109186", "day": 25, "month": 12, "year": 2022, "location": "Haddada", "latitude": 35.7612, "longitude": 36.1794 }, "geometry": { "type": "Point", "coordinates": [ 36.1794, 35.7612 ] } },
{ "type": "Feature", "properties": { "field_1": 153, "event_id_cnty": "SYR109187", "day": 25, "month": 12, "year": 2022, "location": "Mashekh", "latitude": 35.1923, "longitude": 40.4701 }, "geometry": { "type": "Point", "coordinates": [ 40.4701, 35.1923 ] } },
{ "type": "Feature", "properties": { "field_1": 154, "event_id_cnty": "SYR109188", "day": 25, "month": 12, "year": 2022, "location": "Al-Rasafah", "latitude": 35.6288, "longitude": 38.7581 }, "geometry": { "type": "Point", "coordinates": [ 38.7581, 35.6288 ] } },
{ "type": "Feature", "properties": { "field_1": 155, "event_id_cnty": "SYR109189", "day": 25, "month": 12, "year": 2022, "location": "Basira", "latitude": 35.158, "longitude": 40.4277 }, "geometry": { "type": "Point", "coordinates": [ 40.4277, 35.158 ] } },
{ "type": "Feature", "properties": { "field_1": 156, "event_id_cnty": "SYR109190", "day": 25, "month": 12, "year": 2022, "location": "Azaz", "latitude": 36.5849, "longitude": 37.0432 }, "geometry": { "type": "Point", "coordinates": [ 37.0432, 36.5849 ] } },
{ "type": "Feature", "properties": { "field_1": 157, "event_id_cnty": "SYR109191", "day": 25, "month": 12, "year": 2022, "location": "Jabal al-Akrad", "latitude": 35.7558, "longitude": 36.1772 }, "geometry": { "type": "Point", "coordinates": [ 36.1772, 35.7558 ] } },
{ "type": "Feature", "properties": { "field_1": 158, "event_id_cnty": "SYR109195", "day": 25, "month": 12, "year": 2022, "location": "Bara", "latitude": 35.686, "longitude": 36.5424 }, "geometry": { "type": "Point", "coordinates": [ 36.5424, 35.686 ] } },
{ "type": "Feature", "properties": { "field_1": 159, "event_id_cnty": "SYR109196", "day": 25, "month": 12, "year": 2022, "location": "Fleifel", "latitude": 35.5888, "longitude": 36.4562 }, "geometry": { "type": "Point", "coordinates": [ 36.4562, 35.5888 ] } },
{ "type": "Feature", "properties": { "field_1": 160, "event_id_cnty": "SYR109197", "day": 25, "month": 12, "year": 2022, "location": "Ftireh", "latitude": 35.6097, "longitude": 36.4853 }, "geometry": { "type": "Point", "coordinates": [ 36.4853, 35.6097 ] } },
{ "type": "Feature", "properties": { "field_1": 161, "event_id_cnty": "SYR109198", "day": 25, "month": 12, "year": 2022, "location": "Kafr Oweid", "latitude": 35.6282, "longitude": 36.4575 }, "geometry": { "type": "Point", "coordinates": [ 36.4575, 35.6282 ] } },
{ "type": "Feature", "properties": { "field_1": 162, "event_id_cnty": "SYR109199", "day": 25, "month": 12, "year": 2022, "location": "Kansafra", "latitude": 35.6599, "longitude": 36.4849 }, "geometry": { "type": "Point", "coordinates": [ 36.4849, 35.6599 ] } },
{ "type": "Feature", "properties": { "field_1": 163, "event_id_cnty": "SYR109200", "day": 25, "month": 12, "year": 2022, "location": "Sfuhen", "latitude": 35.6073, "longitude": 36.4645 }, "geometry": { "type": "Point", "coordinates": [ 36.4645, 35.6073 ] } },
{ "type": "Feature", "properties": { "field_1": 164, "event_id_cnty": "SYR109201", "day": 25, "month": 12, "year": 2022, "location": "Tanab", "latitude": 36.4965, "longitude": 37.0035 }, "geometry": { "type": "Point", "coordinates": [ 37.0035, 36.4965 ] } },
{ "type": "Feature", "properties": { "field_1": 165, "event_id_cnty": "SYR109202", "day": 25, "month": 12, "year": 2022, "location": "Kozliyeh", "latitude": 36.6249, "longitude": 40.2253 }, "geometry": { "type": "Point", "coordinates": [ 40.2253, 36.6249 ] } },
{ "type": "Feature", "properties": { "field_1": 166, "event_id_cnty": "SYR109203", "day": 25, "month": 12, "year": 2022, "location": "Tell Abiad", "latitude": 36.6978, "longitude": 38.9548 }, "geometry": { "type": "Point", "coordinates": [ 38.9548, 36.6978 ] } },
{ "type": "Feature", "properties": { "field_1": 167, "event_id_cnty": "SYR109204", "day": 25, "month": 12, "year": 2022, "location": "Abu Rasin", "latitude": 36.8465, "longitude": 40.3284 }, "geometry": { "type": "Point", "coordinates": [ 40.3284, 36.8465 ] } },
{ "type": "Feature", "properties": { "field_1": 168, "event_id_cnty": "SYR109205", "day": 25, "month": 12, "year": 2022, "location": "Al Ziyarah", "latitude": 36.853, "longitude": 38.0347 }, "geometry": { "type": "Point", "coordinates": [ 38.0347, 36.853 ] } },
{ "type": "Feature", "properties": { "field_1": 169, "event_id_cnty": "SYR109206", "day": 25, "month": 12, "year": 2022, "location": "Ain al Arab", "latitude": 36.8891, "longitude": 38.3521 }, "geometry": { "type": "Point", "coordinates": [ 38.3521, 36.8891 ] } },
{ "type": "Feature", "properties": { "field_1": 170, "event_id_cnty": "SYR109207", "day": 25, "month": 12, "year": 2022, "location": "Afrin", "latitude": 36.5111, "longitude": 36.8655 }, "geometry": { "type": "Point", "coordinates": [ 36.8655, 36.5111 ] } },
{ "type": "Feature", "properties": { "field_1": 171, "event_id_cnty": "SYR109208", "day": 25, "month": 12, "year": 2022, "location": "Bab Al Salameh", "latitude": 36.632, "longitude": 37.0843 }, "geometry": { "type": "Point", "coordinates": [ 37.0843, 36.632 ] } },
{ "type": "Feature", "properties": { "field_1": 172, "event_id_cnty": "SYR109209", "day": 25, "month": 12, "year": 2022, "location": "Tabni", "latitude": 35.605, "longitude": 39.8191 }, "geometry": { "type": "Point", "coordinates": [ 39.8191, 35.605 ] } },
{ "type": "Feature", "properties": { "field_1": 173, "event_id_cnty": "SYR109210", "day": 25, "month": 12, "year": 2022, "location": "Shiheil", "latitude": 35.092, "longitude": 40.4543 }, "geometry": { "type": "Point", "coordinates": [ 40.4543, 35.092 ] } },
{ "type": "Feature", "properties": { "field_1": 174, "event_id_cnty": "SYR109211", "day": 25, "month": 12, "year": 2022, "location": "Yadudeh", "latitude": 32.6689, "longitude": 36.06 }, "geometry": { "type": "Point", "coordinates": [ 36.06, 32.6689 ] } },
{ "type": "Feature", "properties": { "field_1": 175, "event_id_cnty": "SYR109212", "day": 25, "month": 12, "year": 2022, "location": "Azaz", "latitude": 36.5849, "longitude": 37.0432 }, "geometry": { "type": "Point", "coordinates": [ 37.0432, 36.5849 ] } },
{ "type": "Feature", "properties": { "field_1": 176, "event_id_cnty": "TUR28377", "day": 25, "month": 12, "year": 2022, "location": "Kayapinar", "latitude": 37.9791, "longitude": 39.9861 }, "geometry": { "type": "Point", "coordinates": [ 39.9861, 37.9791 ] } },
{ "type": "Feature", "properties": { "field_1": 177, "event_id_cnty": "SYR109194", "day": 25, "month": 12, "year": 2022, "location": "Tanab", "latitude": 36.4965, "longitude": 37.0035 }, "geometry": { "type": "Point", "coordinates": [ 37.0035, 36.4965 ] } },
{ "type": "Feature", "properties": { "field_1": 178, "event_id_cnty": "SYR109049", "day": 24, "month": 12, "year": 2022, "location": "Ma'arrat Mukhus", "latitude": 35.6316, "longitude": 36.5231 }, "geometry": { "type": "Point", "coordinates": [ 36.5231, 35.6316 ] } },
{ "type": "Feature", "properties": { "field_1": 179, "event_id_cnty": "SYR109050", "day": 24, "month": 12, "year": 2022, "location": "Regiment 111 Army Base", "latitude": 36.2586, "longitude": 36.8952 }, "geometry": { "type": "Point", "coordinates": [ 36.8952, 36.2586 ] } },
{ "type": "Feature", "properties": { "field_1": 180, "event_id_cnty": "SYR109053", "day": 24, "month": 12, "year": 2022, "location": "Ftireh", "latitude": 35.6097, "longitude": 36.4853 }, "geometry": { "type": "Point", "coordinates": [ 36.4853, 35.6097 ] } },
{ "type": "Feature", "properties": { "field_1": 181, "event_id_cnty": "SYR109054", "day": 24, "month": 12, "year": 2022, "location": "Saraqab", "latitude": 35.8611, "longitude": 36.8061 }, "geometry": { "type": "Point", "coordinates": [ 36.8061, 35.8611 ] } },
{ "type": "Feature", "properties": { "field_1": 182, "event_id_cnty": "SYR109055", "day": 24, "month": 12, "year": 2022, "location": "Kafr Kalbein", "latitude": 36.5554, "longitude": 37.0886 }, "geometry": { "type": "Point", "coordinates": [ 37.0886, 36.5554 ] } },
{ "type": "Feature", "properties": { "field_1": 183, "event_id_cnty": "SYR109056", "day": 24, "month": 12, "year": 2022, "location": "Salhiyeh", "latitude": 34.721, "longitude": 40.755 }, "geometry": { "type": "Point", "coordinates": [ 40.755, 34.721 ] } },
{ "type": "Feature", "properties": { "field_1": 184, "event_id_cnty": "SYR109058", "day": 24, "month": 12, "year": 2022, "location": "Sidnaya Military Prison", "latitude": 33.6653, "longitude": 36.329 }, "geometry": { "type": "Point", "coordinates": [ 36.329, 33.6653 ] } },
{ "type": "Feature", "properties": { "field_1": 185, "event_id_cnty": "SYR109059", "day": 24, "month": 12, "year": 2022, "location": "Ras al-Ain", "latitude": 36.8494, "longitude": 40.0747 }, "geometry": { "type": "Point", "coordinates": [ 40.0747, 36.8494 ] } },
{ "type": "Feature", "properties": { "field_1": 186, "event_id_cnty": "SYR109065", "day": 24, "month": 12, "year": 2022, "location": "Quamishli", "latitude": 37.0447, "longitude": 41.2262 }, "geometry": { "type": "Point", "coordinates": [ 41.2262, 37.0447 ] } },
{ "type": "Feature", "properties": { "field_1": 187, "event_id_cnty": "SYR109076", "day": 24, "month": 12, "year": 2022, "location": "Al-Sirmaniyah", "latitude": 35.7225, "longitude": 36.2781 }, "geometry": { "type": "Point", "coordinates": [ 36.2781, 35.7225 ] } },
{ "type": "Feature", "properties": { "field_1": 188, "event_id_cnty": "SYR109077", "day": 24, "month": 12, "year": 2022, "location": "Ankhel", "latitude": 33.0188, "longitude": 36.1273 }, "geometry": { "type": "Point", "coordinates": [ 36.1273, 33.0188 ] } },
{ "type": "Feature", "properties": { "field_1": 189, "event_id_cnty": "SYR109090", "day": 24, "month": 12, "year": 2022, "location": "Bara", "latitude": 35.686, "longitude": 36.5424 }, "geometry": { "type": "Point", "coordinates": [ 36.5424, 35.686 ] } },
{ "type": "Feature", "properties": { "field_1": 190, "event_id_cnty": "SYR109092", "day": 24, "month": 12, "year": 2022, "location": "Al Baylouniyeh", "latitude": 36.5113, "longitude": 37.0848 }, "geometry": { "type": "Point", "coordinates": [ 37.0848, 36.5113 ] } },
{ "type": "Feature", "properties": { "field_1": 191, "event_id_cnty": "SYR109094", "day": 24, "month": 12, "year": 2022, "location": "Al Mu'allaq", "latitude": 36.4055, "longitude": 38.8461 }, "geometry": { "type": "Point", "coordinates": [ 38.8461, 36.4055 ] } },
{ "type": "Feature", "properties": { "field_1": 192, "event_id_cnty": "SYR109095", "day": 24, "month": 12, "year": 2022, "location": "Ein Issa", "latitude": 36.3837, "longitude": 38.8628 }, "geometry": { "type": "Point", "coordinates": [ 38.8628, 36.3837 ] } },
{ "type": "Feature", "properties": { "field_1": 193, "event_id_cnty": "SYR109096", "day": 24, "month": 12, "year": 2022, "location": "Jadida", "latitude": 36.4029, "longitude": 38.8318 }, "geometry": { "type": "Point", "coordinates": [ 38.8318, 36.4029 ] } },
{ "type": "Feature", "properties": { "field_1": 194, "event_id_cnty": "SYR109097", "day": 24, "month": 12, "year": 2022, "location": "Kozliyeh", "latitude": 36.6249, "longitude": 40.2253 }, "geometry": { "type": "Point", "coordinates": [ 40.2253, 36.6249 ] } },
{ "type": "Feature", "properties": { "field_1": 195, "event_id_cnty": "SYR109099", "day": 24, "month": 12, "year": 2022, "location": "Saida", "latitude": 36.4024, "longitude": 38.8643 }, "geometry": { "type": "Point", "coordinates": [ 38.8643, 36.4024 ] } },
{ "type": "Feature", "properties": { "field_1": 196, "event_id_cnty": "SYR109104", "day": 24, "month": 12, "year": 2022, "location": "Sheikh Isa", "latitude": 36.4793, "longitude": 37.1467 }, "geometry": { "type": "Point", "coordinates": [ 37.1467, 36.4793 ] } },
{ "type": "Feature", "properties": { "field_1": 197, "event_id_cnty": "SYR109108", "day": 24, "month": 12, "year": 2022, "location": "Tal Al-Laban", "latitude": 36.614, "longitude": 40.2018 }, "geometry": { "type": "Point", "coordinates": [ 40.2018, 36.614 ] } },
{ "type": "Feature", "properties": { "field_1": 198, "event_id_cnty": "SYR109109", "day": 24, "month": 12, "year": 2022, "location": "Khirbat az Zuwayn", "latitude": 36.3993, "longitude": 37.3756 }, "geometry": { "type": "Point", "coordinates": [ 37.3756, 36.3993 ] } },
{ "type": "Feature", "properties": { "field_1": 199, "event_id_cnty": "SYR109117", "day": 24, "month": 12, "year": 2022, "location": "Sad Al-Shahba", "latitude": 36.4137, "longitude": 37.2854 }, "geometry": { "type": "Point", "coordinates": [ 37.2854, 36.4137 ] } },
{ "type": "Feature", "properties": { "field_1": 200, "event_id_cnty": "SYR109118", "day": 24, "month": 12, "year": 2022, "location": "Tal Madeeq", "latitude": 36.4094, "longitude": 37.2846 }, "geometry": { "type": "Point", "coordinates": [ 37.2846, 36.4094 ] } },
{ "type": "Feature", "properties": { "field_1": 201, "event_id_cnty": "SYR109119", "day": 24, "month": 12, "year": 2022, "location": "Dashishah", "latitude": 36.0436, "longitude": 41.1644 }, "geometry": { "type": "Point", "coordinates": [ 41.1644, 36.0436 ] } },
{ "type": "Feature", "properties": { "field_1": 202, "event_id_cnty": "SYR109128", "day": 24, "month": 12, "year": 2022, "location": "Hweij Dhiab", "latitude": 35.4781, "longitude": 40.0622 }, "geometry": { "type": "Point", "coordinates": [ 40.0622, 35.4781 ] } },
{ "type": "Feature", "properties": { "field_1": 203, "event_id_cnty": "SYR109132", "day": 24, "month": 12, "year": 2022, "location": "Zakiyeh", "latitude": 33.3341, "longitude": 36.1588 }, "geometry": { "type": "Point", "coordinates": [ 36.1588, 33.3341 ] } },
{ "type": "Feature", "properties": { "field_1": 204, "event_id_cnty": "TUR28381", "day": 24, "month": 12, "year": 2022, "location": "Tunceli", "latitude": 39.0992, "longitude": 39.5435 }, "geometry": { "type": "Point", "coordinates": [ 39.5435, 39.0992 ] } },
{ "type": "Feature", "properties": { "field_1": 205, "event_id_cnty": "SYR109057", "day": 24, "month": 12, "year": 2022, "location": "Areesheh", "latitude": 36.2498, "longitude": 40.7617 }, "geometry": { "type": "Point", "coordinates": [ 40.7617, 36.2498 ] } },
{ "type": "Feature", "properties": { "field_1": 206, "event_id_cnty": "SYR110162", "day": 24, "month": 12, "year": 2022, "location": "Kafruhin", "latitude": 35.9736, "longitude": 36.5628 }, "geometry": { "type": "Point", "coordinates": [ 36.5628, 35.9736 ] } },
{ "type": "Feature", "properties": { "field_1": 207, "event_id_cnty": "SYR109073", "day": 24, "month": 12, "year": 2022, "location": "Khuzaymuk", "latitude": 37.0512, "longitude": 41.5821 }, "geometry": { "type": "Point", "coordinates": [ 41.5821, 37.0512 ] } },
{ "type": "Feature", "properties": { "field_1": 208, "event_id_cnty": "SYR109074", "day": 24, "month": 12, "year": 2022, "location": "Tawil", "latitude": 36.8891, "longitude": 41.2997 }, "geometry": { "type": "Point", "coordinates": [ 41.2997, 36.8891 ] } },
{ "type": "Feature", "properties": { "field_1": 209, "event_id_cnty": "SYR109075", "day": 24, "month": 12, "year": 2022, "location": "Sad Al Jarahi", "latitude": 37.0633, "longitude": 41.594 }, "geometry": { "type": "Point", "coordinates": [ 41.594, 37.0633 ] } },
{ "type": "Feature", "properties": { "field_1": 210, "event_id_cnty": "SYR109061", "day": 23, "month": 12, "year": 2022, "location": "Saraqab", "latitude": 35.8611, "longitude": 36.8061 }, "geometry": { "type": "Point", "coordinates": [ 36.8061, 35.8611 ] } },
{ "type": "Feature", "properties": { "field_1": 211, "event_id_cnty": "SYR109088", "day": 23, "month": 12, "year": 2022, "location": "Abu Zandin", "latitude": 36.3314, "longitude": 37.4613 }, "geometry": { "type": "Point", "coordinates": [ 37.4613, 36.3314 ] } },
{ "type": "Feature", "properties": { "field_1": 212, "event_id_cnty": "SYR109102", "day": 23, "month": 12, "year": 2022, "location": "Sidnaya Military Prison", "latitude": 33.6653, "longitude": 36.329 }, "geometry": { "type": "Point", "coordinates": [ 36.329, 33.6653 ] } },
{ "type": "Feature", "properties": { "field_1": 213, "event_id_cnty": "SYR109153", "day": 23, "month": 12, "year": 2022, "location": "Tadaf", "latitude": 36.3479, "longitude": 37.5294 }, "geometry": { "type": "Point", "coordinates": [ 37.5294, 36.3479 ] } },
{ "type": "Feature", "properties": { "field_1": 214, "event_id_cnty": "SYR109298", "day": 23, "month": 12, "year": 2022, "location": "Al Sabinah Al Kubra", "latitude": 33.4392, "longitude": 36.2811 }, "geometry": { "type": "Point", "coordinates": [ 36.2811, 33.4392 ] } },
{ "type": "Feature", "properties": { "field_1": 215, "event_id_cnty": "SYR109355", "day": 23, "month": 12, "year": 2022, "location": "Bara", "latitude": 35.686, "longitude": 36.5424 }, "geometry": { "type": "Point", "coordinates": [ 36.5424, 35.686 ] } },
{ "type": "Feature", "properties": { "field_1": 216, "event_id_cnty": "SYR109367", "day": 23, "month": 12, "year": 2022, "location": "Jarqili Kabir", "latitude": 36.8576, "longitude": 38.0907 }, "geometry": { "type": "Point", "coordinates": [ 38.0907, 36.8576 ] } },
{ "type": "Feature", "properties": { "field_1": 217, "event_id_cnty": "SYR109368", "day": 23, "month": 12, "year": 2022, "location": "Tell Abiad", "latitude": 36.6978, "longitude": 38.9548 }, "geometry": { "type": "Point", "coordinates": [ 38.9548, 36.6978 ] } },
{ "type": "Feature", "properties": { "field_1": 218, "event_id_cnty": "SYR109369", "day": 23, "month": 12, "year": 2022, "location": "Tal Al-Laban", "latitude": 36.614, "longitude": 40.2018 }, "geometry": { "type": "Point", "coordinates": [ 40.2018, 36.614 ] } },
{ "type": "Feature", "properties": { "field_1": 219, "event_id_cnty": "SYR109370", "day": 23, "month": 12, "year": 2022, "location": "Ein Issa", "latitude": 36.3837, "longitude": 38.8628 }, "geometry": { "type": "Point", "coordinates": [ 38.8628, 36.3837 ] } },
{ "type": "Feature", "properties": { "field_1": 220, "event_id_cnty": "SYR109371", "day": 23, "month": 12, "year": 2022, "location": "Upper Shyookh", "latitude": 36.7858, "longitude": 38.0473 }, "geometry": { "type": "Point", "coordinates": [ 38.0473, 36.7858 ] } },
{ "type": "Feature", "properties": { "field_1": 221, "event_id_cnty": "SYR109372", "day": 23, "month": 12, "year": 2022, "location": "Zur Maghar", "latitude": 36.8346, "longitude": 38.0347 }, "geometry": { "type": "Point", "coordinates": [ 38.0347, 36.8346 ] } },
{ "type": "Feature", "properties": { "field_1": 222, "event_id_cnty": "SYR109387", "day": 23, "month": 12, "year": 2022, "location": "Kharab Nas", "latitude": 36.83, "longitude": 38.5522 }, "geometry": { "type": "Point", "coordinates": [ 38.5522, 36.83 ] } },
{ "type": "Feature", "properties": { "field_1": 223, "event_id_cnty": "SYR109388", "day": 23, "month": 12, "year": 2022, "location": "Al-Khaldiyah", "latitude": 36.4183, "longitude": 38.8101 }, "geometry": { "type": "Point", "coordinates": [ 38.8101, 36.4183 ] } },
{ "type": "Feature", "properties": { "field_1": 224, "event_id_cnty": "SYR109389", "day": 23, "month": 12, "year": 2022, "location": "Hoshan", "latitude": 36.4841, "longitude": 38.6861 }, "geometry": { "type": "Point", "coordinates": [ 38.6861, 36.4841 ] } },
{ "type": "Feature", "properties": { "field_1": 225, "event_id_cnty": "SYR109390", "day": 23, "month": 12, "year": 2022, "location": "Jayshan", "latitude": 36.8069, "longitude": 38.5552 }, "geometry": { "type": "Point", "coordinates": [ 38.5552, 36.8069 ] } },
{ "type": "Feature", "properties": { "field_1": 226, "event_id_cnty": "SYR109395", "day": 23, "month": 12, "year": 2022, "location": "Busraton", "latitude": 36.2028, "longitude": 36.9104 }, "geometry": { "type": "Point", "coordinates": [ 36.9104, 36.2028 ] } },
{ "type": "Feature", "properties": { "field_1": 227, "event_id_cnty": "SYR109408", "day": 23, "month": 12, "year": 2022, "location": "Zakiyeh", "latitude": 33.3341, "longitude": 36.1588 }, "geometry": { "type": "Point", "coordinates": [ 36.1588, 33.3341 ] } },
{ "type": "Feature", "properties": { "field_1": 228, "event_id_cnty": "SYR109411", "day": 23, "month": 12, "year": 2022, "location": "Jasmi", "latitude": 35.5194, "longitude": 40.6883 }, "geometry": { "type": "Point", "coordinates": [ 40.6883, 35.5194 ] } },
{ "type": "Feature", "properties": { "field_1": 229, "event_id_cnty": "SYR109412", "day": 23, "month": 12, "year": 2022, "location": "Gharb", "latitude": 36.1598, "longitude": 40.6882 }, "geometry": { "type": "Point", "coordinates": [ 40.6882, 36.1598 ] } },
{ "type": "Feature", "properties": { "field_1": 230, "event_id_cnty": "SYR109413", "day": 23, "month": 12, "year": 2022, "location": "Jiah", "latitude": 35.4086, "longitude": 40.164 }, "geometry": { "type": "Point", "coordinates": [ 40.164, 35.4086 ] } },
{ "type": "Feature", "properties": { "field_1": 231, "event_id_cnty": "SYR109433", "day": 23, "month": 12, "year": 2022, "location": "Homs - Baba Amr", "latitude": 34.7119, "longitude": 36.6921 }, "geometry": { "type": "Point", "coordinates": [ 36.6921, 34.7119 ] } },
{ "type": "Feature", "properties": { "field_1": 232, "event_id_cnty": "SYR109438", "day": 23, "month": 12, "year": 2022, "location": "Zamlah", "latitude": 35.4791, "longitude": 38.8871 }, "geometry": { "type": "Point", "coordinates": [ 38.8871, 35.4791 ] } },
{ "type": "Feature", "properties": { "field_1": 233, "event_id_cnty": "SYR109442", "day": 23, "month": 12, "year": 2022, "location": "Hole Camp", "latitude": 36.3768, "longitude": 41.1333 }, "geometry": { "type": "Point", "coordinates": [ 41.1333, 36.3768 ] } },
{ "type": "Feature", "properties": { "field_1": 234, "event_id_cnty": "SYR109444", "day": 23, "month": 12, "year": 2022, "location": "Quamishli", "latitude": 37.0447, "longitude": 41.2262 }, "geometry": { "type": "Point", "coordinates": [ 41.2262, 37.0447 ] } },
{ "type": "Feature", "properties": { "field_1": 235, "event_id_cnty": "SYR109446", "day": 23, "month": 12, "year": 2022, "location": "Dashishah", "latitude": 36.0436, "longitude": 41.1644 }, "geometry": { "type": "Point", "coordinates": [ 41.1644, 36.0436 ] } },
{ "type": "Feature", "properties": { "field_1": 236, "event_id_cnty": "SYR109449", "day": 23, "month": 12, "year": 2022, "location": "Ma'btali", "latitude": 36.5633, "longitude": 36.7368 }, "geometry": { "type": "Point", "coordinates": [ 36.7368, 36.5633 ] } },
{ "type": "Feature", "properties": { "field_1": 237, "event_id_cnty": "SYR109467", "day": 23, "month": 12, "year": 2022, "location": "Alma", "latitude": 32.7508, "longitude": 36.2407 }, "geometry": { "type": "Point", "coordinates": [ 36.2407, 32.7508 ] } },
{ "type": "Feature", "properties": { "field_1": 238, "event_id_cnty": "SYR109475", "day": 23, "month": 12, "year": 2022, "location": "Shadadah", "latitude": 36.0534, "longitude": 40.7268 }, "geometry": { "type": "Point", "coordinates": [ 40.7268, 36.0534 ] } },
{ "type": "Feature", "properties": { "field_1": 239, "event_id_cnty": "TUR28365", "day": 23, "month": 12, "year": 2022, "location": "Yenisehir", "latitude": 37.9215, "longitude": 40.241 }, "geometry": { "type": "Point", "coordinates": [ 40.241, 37.9215 ] } },
{ "type": "Feature", "properties": { "field_1": 240, "event_id_cnty": "SYR109082", "day": 22, "month": 12, "year": 2022, "location": "Thiban", "latitude": 35.0114, "longitude": 40.5047 }, "geometry": { "type": "Point", "coordinates": [ 40.5047, 35.0114 ] } },
{ "type": "Feature", "properties": { "field_1": 241, "event_id_cnty": "SYR109089", "day": 22, "month": 12, "year": 2022, "location": "Mare'", "latitude": 36.4827, "longitude": 37.1965 }, "geometry": { "type": "Point", "coordinates": [ 37.1965, 36.4827 ] } },
{ "type": "Feature", "properties": { "field_1": 242, "event_id_cnty": "SYR109101", "day": 22, "month": 12, "year": 2022, "location": "Sidnaya Military Prison", "latitude": 33.6653, "longitude": 36.329 }, "geometry": { "type": "Point", "coordinates": [ 36.329, 33.6653 ] } },
{ "type": "Feature", "properties": { "field_1": 243, "event_id_cnty": "SYR109125", "day": 22, "month": 12, "year": 2022, "location": "Ftireh", "latitude": 35.6097, "longitude": 36.4853 }, "geometry": { "type": "Point", "coordinates": [ 36.4853, 35.6097 ] } },
{ "type": "Feature", "properties": { "field_1": 244, "event_id_cnty": "SYR109126", "day": 22, "month": 12, "year": 2022, "location": "Al Burayj", "latitude": 35.6355, "longitude": 36.5311 }, "geometry": { "type": "Point", "coordinates": [ 36.5311, 35.6355 ] } },
{ "type": "Feature", "properties": { "field_1": 245, "event_id_cnty": "SYR109144", "day": 22, "month": 12, "year": 2022, "location": "Raju", "latitude": 36.677, "longitude": 36.6645 }, "geometry": { "type": "Point", "coordinates": [ 36.6645, 36.677 ] } },
{ "type": "Feature", "properties": { "field_1": 246, "event_id_cnty": "SYR109148", "day": 22, "month": 12, "year": 2022, "location": "Ma'arrat Mukhus", "latitude": 35.6316, "longitude": 36.5231 }, "geometry": { "type": "Point", "coordinates": [ 36.5231, 35.6316 ] } },
{ "type": "Feature", "properties": { "field_1": 247, "event_id_cnty": "SYR109150", "day": 22, "month": 12, "year": 2022, "location": "Dabiq", "latitude": 36.5369, "longitude": 37.2685 }, "geometry": { "type": "Point", "coordinates": [ 37.2685, 36.5369 ] } },
{ "type": "Feature", "properties": { "field_1": 248, "event_id_cnty": "SYR109154", "day": 22, "month": 12, "year": 2022, "location": "Jneineh", "latitude": 35.3665, "longitude": 40.1196 }, "geometry": { "type": "Point", "coordinates": [ 40.1196, 35.3665 ] } },
{ "type": "Feature", "properties": { "field_1": 249, "event_id_cnty": "SYR109169", "day": 22, "month": 12, "year": 2022, "location": "Afrin", "latitude": 36.5111, "longitude": 36.8655 }, "geometry": { "type": "Point", "coordinates": [ 36.8655, 36.5111 ] } },
{ "type": "Feature", "properties": { "field_1": 250, "event_id_cnty": "SYR109185", "day": 22, "month": 12, "year": 2022, "location": "Al-Rasafah", "latitude": 35.6288, "longitude": 38.7581 }, "geometry": { "type": "Point", "coordinates": [ 38.7581, 35.6288 ] } },
{ "type": "Feature", "properties": { "field_1": 251, "event_id_cnty": "SYR109268", "day": 22, "month": 12, "year": 2022, "location": "Meidan Ekbis", "latitude": 36.8214, "longitude": 36.6782 }, "geometry": { "type": "Point", "coordinates": [ 36.6782, 36.8214 ] } },
{ "type": "Feature", "properties": { "field_1": 252, "event_id_cnty": "SYR109316", "day": 22, "month": 12, "year": 2022, "location": "Sfuhen", "latitude": 35.6073, "longitude": 36.4645 }, "geometry": { "type": "Point", "coordinates": [ 36.4645, 35.6073 ] } },
{ "type": "Feature", "properties": { "field_1": 253, "event_id_cnty": "SYR109351", "day": 22, "month": 12, "year": 2022, "location": "Al Habata", "latitude": 36.2168, "longitude": 36.8871 }, "geometry": { "type": "Point", "coordinates": [ 36.8871, 36.2168 ] } },
{ "type": "Feature", "properties": { "field_1": 254, "event_id_cnty": "SYR109352", "day": 22, "month": 12, "year": 2022, "location": "Bara", "latitude": 35.686, "longitude": 36.5424 }, "geometry": { "type": "Point", "coordinates": [ 36.5424, 35.686 ] } },
{ "type": "Feature", "properties": { "field_1": 255, "event_id_cnty": "SYR109353", "day": 22, "month": 12, "year": 2022, "location": "Kansafra", "latitude": 35.6599, "longitude": 36.4849 }, "geometry": { "type": "Point", "coordinates": [ 36.4849, 35.6599 ] } },
{ "type": "Feature", "properties": { "field_1": 256, "event_id_cnty": "SYR109354", "day": 22, "month": 12, "year": 2022, "location": "Tadil", "latitude": 36.1647, "longitude": 36.888 }, "geometry": { "type": "Point", "coordinates": [ 36.888, 36.1647 ] } },
{ "type": "Feature", "properties": { "field_1": 257, "event_id_cnty": "SYR109356", "day": 22, "month": 12, "year": 2022, "location": "Zur Maghar", "latitude": 36.8346, "longitude": 38.0347 }, "geometry": { "type": "Point", "coordinates": [ 38.0347, 36.8346 ] } },
{ "type": "Feature", "properties": { "field_1": 258, "event_id_cnty": "SYR109366", "day": 22, "month": 12, "year": 2022, "location": "Kozliyeh", "latitude": 36.6249, "longitude": 40.2253 }, "geometry": { "type": "Point", "coordinates": [ 40.2253, 36.6249 ] } },
{ "type": "Feature", "properties": { "field_1": 259, "event_id_cnty": "SYR109384", "day": 22, "month": 12, "year": 2022, "location": "Khirbat az Zuwayn", "latitude": 36.3993, "longitude": 37.3756 }, "geometry": { "type": "Point", "coordinates": [ 37.3756, 36.3993 ] } },
{ "type": "Feature", "properties": { "field_1": 260, "event_id_cnty": "SYR109385", "day": 22, "month": 12, "year": 2022, "location": "Sad Al-Shahba", "latitude": 36.4137, "longitude": 37.2854 }, "geometry": { "type": "Point", "coordinates": [ 37.2854, 36.4137 ] } },
{ "type": "Feature", "properties": { "field_1": 261, "event_id_cnty": "SYR109386", "day": 22, "month": 12, "year": 2022, "location": "Tal Madeeq", "latitude": 36.4094, "longitude": 37.2846 }, "geometry": { "type": "Point", "coordinates": [ 37.2846, 36.4094 ] } },
{ "type": "Feature", "properties": { "field_1": 262, "event_id_cnty": "SYR109437", "day": 22, "month": 12, "year": 2022, "location": "Ankhel", "latitude": 33.0188, "longitude": 36.1273 }, "geometry": { "type": "Point", "coordinates": [ 36.1273, 33.0188 ] } },
{ "type": "Feature", "properties": { "field_1": 263, "event_id_cnty": "SYR109445", "day": 22, "month": 12, "year": 2022, "location": "Big Sweidiyeh", "latitude": 35.8964, "longitude": 38.6154 }, "geometry": { "type": "Point", "coordinates": [ 38.6154, 35.8964 ] } },
{ "type": "Feature", "properties": { "field_1": 264, "event_id_cnty": "SYR109472", "day": 22, "month": 12, "year": 2022, "location": "Adwan", "latitude": 32.8212, "longitude": 35.9951 }, "geometry": { "type": "Point", "coordinates": [ 35.9951, 32.8212 ] } },
{ "type": "Feature", "properties": { "field_1": 265, "event_id_cnty": "SYR109123", "day": 21, "month": 12, "year": 2022, "location": "Teftnaz - Military Air Base", "latitude": 35.9732, "longitude": 36.7836 }, "geometry": { "type": "Point", "coordinates": [ 36.7836, 35.9732 ] } },
{ "type": "Feature", "properties": { "field_1": 266, "event_id_cnty": "SYR109124", "day": 21, "month": 12, "year": 2022, "location": "Saraqab", "latitude": 35.8611, "longitude": 36.8061 }, "geometry": { "type": "Point", "coordinates": [ 36.8061, 35.8611 ] } },
{ "type": "Feature", "properties": { "field_1": 267, "event_id_cnty": "SYR109135", "day": 21, "month": 12, "year": 2022, "location": "Azaz", "latitude": 36.5849, "longitude": 37.0432 }, "geometry": { "type": "Point", "coordinates": [ 37.0432, 36.5849 ] } },
{ "type": "Feature", "properties": { "field_1": 268, "event_id_cnty": "SYR109138", "day": 21, "month": 12, "year": 2022, "location": "Hajar Aswad", "latitude": 33.4579, "longitude": 36.303 }, "geometry": { "type": "Point", "coordinates": [ 36.303, 33.4579 ] } },
{ "type": "Feature", "properties": { "field_1": 269, "event_id_cnty": "SYR109143", "day": 21, "month": 12, "year": 2022, "location": "Afrin", "latitude": 36.5111, "longitude": 36.8655 }, "geometry": { "type": "Point", "coordinates": [ 36.8655, 36.5111 ] } },
{ "type": "Feature", "properties": { "field_1": 270, "event_id_cnty": "SYR109155", "day": 21, "month": 12, "year": 2022, "location": "As-Sanamayn", "latitude": 33.0711, "longitude": 36.1833 }, "geometry": { "type": "Point", "coordinates": [ 36.1833, 33.0711 ] } },
{ "type": "Feature", "properties": { "field_1": 271, "event_id_cnty": "SYR109272", "day": 21, "month": 12, "year": 2022, "location": "Madhba'a", "latitude": 36.8325, "longitude": 40.2388 }, "geometry": { "type": "Point", "coordinates": [ 40.2388, 36.8325 ] } },
{ "type": "Feature", "properties": { "field_1": 272, "event_id_cnty": "SYR109274", "day": 21, "month": 12, "year": 2022, "location": "Aleppo", "latitude": 36.206, "longitude": 37.1524 }, "geometry": { "type": "Point", "coordinates": [ 37.1524, 36.206 ] } },
{ "type": "Feature", "properties": { "field_1": 273, "event_id_cnty": "SYR109307", "day": 21, "month": 12, "year": 2022, "location": "Hweisis", "latitude": 34.8314, "longitude": 37.6847 }, "geometry": { "type": "Point", "coordinates": [ 37.6847, 34.8314 ] } },
{ "type": "Feature", "properties": { "field_1": 274, "event_id_cnty": "SYR109311", "day": 21, "month": 12, "year": 2022, "location": "Regiment 46 - Military Base", "latitude": 36.1239, "longitude": 36.888 }, "geometry": { "type": "Point", "coordinates": [ 36.888, 36.1239 ] } },
{ "type": "Feature", "properties": { "field_1": 275, "event_id_cnty": "SYR109315", "day": 21, "month": 12, "year": 2022, "location": "San", "latitude": 35.8414, "longitude": 36.7353 }, "geometry": { "type": "Point", "coordinates": [ 36.7353, 35.8414 ] } },
{ "type": "Feature", "properties": { "field_1": 276, "event_id_cnty": "SYR109346", "day": 21, "month": 12, "year": 2022, "location": "Banin", "latitude": 35.7097, "longitude": 36.6401 }, "geometry": { "type": "Point", "coordinates": [ 36.6401, 35.7097 ] } },
{ "type": "Feature", "properties": { "field_1": 277, "event_id_cnty": "SYR109347", "day": 21, "month": 12, "year": 2022, "location": "Bara", "latitude": 35.686, "longitude": 36.5424 }, "geometry": { "type": "Point", "coordinates": [ 36.5424, 35.686 ] } },
{ "type": "Feature", "properties": { "field_1": 278, "event_id_cnty": "SYR109348", "day": 21, "month": 12, "year": 2022, "location": "Maaret Al Naasan", "latitude": 36.0351, "longitude": 36.8376 }, "geometry": { "type": "Point", "coordinates": [ 36.8376, 36.0351 ] } },
{ "type": "Feature", "properties": { "field_1": 279, "event_id_cnty": "SYR109349", "day": 21, "month": 12, "year": 2022, "location": "Al Wasta", "latitude": 36.1107, "longitude": 36.8401 }, "geometry": { "type": "Point", "coordinates": [ 36.8401, 36.1107 ] } },
{ "type": "Feature", "properties": { "field_1": 280, "event_id_cnty": "SYR109350", "day": 21, "month": 12, "year": 2022, "location": "Bahfis", "latitude": 36.1838, "longitude": 36.9063 }, "geometry": { "type": "Point", "coordinates": [ 36.9063, 36.1838 ] } },
{ "type": "Feature", "properties": { "field_1": 281, "event_id_cnty": "SYR109364", "day": 21, "month": 12, "year": 2022, "location": "Kozliyeh", "latitude": 36.6249, "longitude": 40.2253 }, "geometry": { "type": "Point", "coordinates": [ 40.2253, 36.6249 ] } },
{ "type": "Feature", "properties": { "field_1": 282, "event_id_cnty": "SYR109365", "day": 21, "month": 12, "year": 2022, "location": "Tal Al-Laban", "latitude": 36.614, "longitude": 40.2018 }, "geometry": { "type": "Point", "coordinates": [ 40.2018, 36.614 ] } },
{ "type": "Feature", "properties": { "field_1": 283, "event_id_cnty": "SYR109382", "day": 21, "month": 12, "year": 2022, "location": "Menbij", "latitude": 36.5258, "longitude": 37.951 }, "geometry": { "type": "Point", "coordinates": [ 37.951, 36.5258 ] } },
{ "type": "Feature", "properties": { "field_1": 284, "event_id_cnty": "SYR109383", "day": 21, "month": 12, "year": 2022, "location": "Tokhar", "latitude": 36.6398, "longitude": 37.9812 }, "geometry": { "type": "Point", "coordinates": [ 37.9812, 36.6398 ] } },
{ "type": "Feature", "properties": { "field_1": 285, "event_id_cnty": "SYR109391", "day": 21, "month": 12, "year": 2022, "location": "Al Mu'allaq", "latitude": 36.4055, "longitude": 38.8461 }, "geometry": { "type": "Point", "coordinates": [ 38.8461, 36.4055 ] } },
{ "type": "Feature", "properties": { "field_1": 286, "event_id_cnty": "SYR109392", "day": 21, "month": 12, "year": 2022, "location": "Jadida", "latitude": 36.4029, "longitude": 38.8318 }, "geometry": { "type": "Point", "coordinates": [ 38.8318, 36.4029 ] } },
{ "type": "Feature", "properties": { "field_1": 287, "event_id_cnty": "SYR109393", "day": 21, "month": 12, "year": 2022, "location": "Saida", "latitude": 36.4024, "longitude": 38.8643 }, "geometry": { "type": "Point", "coordinates": [ 38.8643, 36.4024 ] } },
{ "type": "Feature", "properties": { "field_1": 288, "event_id_cnty": "SYR109394", "day": 21, "month": 12, "year": 2022, "location": "Ein Issa", "latitude": 36.3837, "longitude": 38.8628 }, "geometry": { "type": "Point", "coordinates": [ 38.8628, 36.3837 ] } },
{ "type": "Feature", "properties": { "field_1": 289, "event_id_cnty": "SYR109409", "day": 21, "month": 12, "year": 2022, "location": "Breiqa", "latitude": 33.0425, "longitude": 35.8704 }, "geometry": { "type": "Point", "coordinates": [ 35.8704, 33.0425 ] } },
{ "type": "Feature", "properties": { "field_1": 290, "event_id_cnty": "SYR109471", "day": 21, "month": 12, "year": 2022, "location": "Um Eledam", "latitude": 34.7089, "longitude": 36.5227 }, "geometry": { "type": "Point", "coordinates": [ 36.5227, 34.7089 ] } },
{ "type": "Feature", "properties": { "field_1": 291, "event_id_cnty": "SYR109611", "day": 21, "month": 12, "year": 2022, "location": "Kasra", "latitude": 35.567, "longitude": 39.9202 }, "geometry": { "type": "Point", "coordinates": [ 39.9202, 35.567 ] } },
{ "type": "Feature", "properties": { "field_1": 292, "event_id_cnty": "TUR28321", "day": 21, "month": 12, "year": 2022, "location": "Tuzla", "latitude": 40.8299, "longitude": 29.3048 }, "geometry": { "type": "Point", "coordinates": [ 29.3048, 40.8299 ] } },
{ "type": "Feature", "properties": { "field_1": 293, "event_id_cnty": "SYR110043", "day": 21, "month": 12, "year": 2022, "location": "Hweisis", "latitude": 34.8314, "longitude": 37.6847 }, "geometry": { "type": "Point", "coordinates": [ 37.6847, 34.8314 ] } },
{ "type": "Feature", "properties": { "field_1": 294, "event_id_cnty": "SYR109052", "day": 20, "month": 12, "year": 2022, "location": "Al Ghab Plain", "latitude": 35.5604, "longitude": 36.3442 }, "geometry": { "type": "Point", "coordinates": [ 36.3442, 35.5604 ] } },
{ "type": "Feature", "properties": { "field_1": 295, "event_id_cnty": "SYR109079", "day": 20, "month": 12, "year": 2022, "location": "Sokhneh", "latitude": 34.8832, "longitude": 38.87 }, "geometry": { "type": "Point", "coordinates": [ 38.87, 34.8832 ] } },
{ "type": "Feature", "properties": { "field_1": 296, "event_id_cnty": "SYR109081", "day": 20, "month": 12, "year": 2022, "location": "Shiheil", "latitude": 35.092, "longitude": 40.4543 }, "geometry": { "type": "Point", "coordinates": [ 40.4543, 35.092 ] } },
{ "type": "Feature", "properties": { "field_1": 297, "event_id_cnty": "SYR109122", "day": 20, "month": 12, "year": 2022, "location": "Busraton", "latitude": 36.2028, "longitude": 36.9104 }, "geometry": { "type": "Point", "coordinates": [ 36.9104, 36.2028 ] } },
{ "type": "Feature", "properties": { "field_1": 298, "event_id_cnty": "SYR109308", "day": 20, "month": 12, "year": 2022, "location": "Mreiyeh", "latitude": 35.2715, "longitude": 40.2225 }, "geometry": { "type": "Point", "coordinates": [ 40.2225, 35.2715 ] } },
{ "type": "Feature", "properties": { "field_1": 299, "event_id_cnty": "SYR109313", "day": 20, "month": 12, "year": 2022, "location": "Kafruma", "latitude": 35.6353, "longitude": 36.6331 }, "geometry": { "type": "Point", "coordinates": [ 36.6331, 35.6353 ] } },
{ "type": "Feature", "properties": { "field_1": 300, "event_id_cnty": "SYR109339", "day": 20, "month": 12, "year": 2022, "location": "Kafr Taal", "latitude": 36.1542, "longitude": 36.8935 }, "geometry": { "type": "Point", "coordinates": [ 36.8935, 36.1542 ] } },
{ "type": "Feature", "properties": { "field_1": 301, "event_id_cnty": "SYR109340", "day": 20, "month": 12, "year": 2022, "location": "Tadil", "latitude": 36.1647, "longitude": 36.888 }, "geometry": { "type": "Point", "coordinates": [ 36.888, 36.1647 ] } },
{ "type": "Feature", "properties": { "field_1": 302, "event_id_cnty": "SYR109341", "day": 20, "month": 12, "year": 2022, "location": "Taqad", "latitude": 36.1987, "longitude": 36.8698 }, "geometry": { "type": "Point", "coordinates": [ 36.8698, 36.1987 ] } },
{ "type": "Feature", "properties": { "field_1": 303, "event_id_cnty": "SYR109342", "day": 20, "month": 12, "year": 2022, "location": "Abzemo", "latitude": 36.1655, "longitude": 36.8646 }, "geometry": { "type": "Point", "coordinates": [ 36.8646, 36.1655 ] } },
{ "type": "Feature", "properties": { "field_1": 304, "event_id_cnty": "SYR109343", "day": 20, "month": 12, "year": 2022, "location": "Banin", "latitude": 35.7097, "longitude": 36.6401 }, "geometry": { "type": "Point", "coordinates": [ 36.6401, 35.7097 ] } },
{ "type": "Feature", "properties": { "field_1": 305, "event_id_cnty": "SYR109344", "day": 20, "month": 12, "year": 2022, "location": "Bara", "latitude": 35.686, "longitude": 36.5424 }, "geometry": { "type": "Point", "coordinates": [ 36.5424, 35.686 ] } },
{ "type": "Feature", "properties": { "field_1": 306, "event_id_cnty": "SYR109345", "day": 20, "month": 12, "year": 2022, "location": "Majdaliya", "latitude": 35.8345, "longitude": 36.6775 }, "geometry": { "type": "Point", "coordinates": [ 36.6775, 35.8345 ] } },
{ "type": "Feature", "properties": { "field_1": 307, "event_id_cnty": "SYR109373", "day": 20, "month": 12, "year": 2022, "location": "Nayrabiyeh", "latitude": 36.3739, "longitude": 37.3773 }, "geometry": { "type": "Point", "coordinates": [ 37.3773, 36.3739 ] } },
{ "type": "Feature", "properties": { "field_1": 308, "event_id_cnty": "SYR109376", "day": 20, "month": 12, "year": 2022, "location": "Solan", "latitude": 36.7373, "longitude": 38.6077 }, "geometry": { "type": "Point", "coordinates": [ 38.6077, 36.7373 ] } },
{ "type": "Feature", "properties": { "field_1": 309, "event_id_cnty": "SYR109377", "day": 20, "month": 12, "year": 2022, "location": "Jarqili Kabir", "latitude": 36.8576, "longitude": 38.0907 }, "geometry": { "type": "Point", "coordinates": [ 38.0907, 36.8576 ] } },
{ "type": "Feature", "properties": { "field_1": 310, "event_id_cnty": "SYR109378", "day": 20, "month": 12, "year": 2022, "location": "Jayshan", "latitude": 36.8069, "longitude": 38.5552 }, "geometry": { "type": "Point", "coordinates": [ 38.5552, 36.8069 ] } },
{ "type": "Feature", "properties": { "field_1": 311, "event_id_cnty": "SYR109379", "day": 20, "month": 12, "year": 2022, "location": "Seftek", "latitude": 36.9091, "longitude": 38.2213 }, "geometry": { "type": "Point", "coordinates": [ 38.2213, 36.9091 ] } },
{ "type": "Feature", "properties": { "field_1": 312, "event_id_cnty": "SYR109380", "day": 20, "month": 12, "year": 2022, "location": "Upper Shyookh", "latitude": 36.7858, "longitude": 38.0473 }, "geometry": { "type": "Point", "coordinates": [ 38.0473, 36.7858 ] } },
{ "type": "Feature", "properties": { "field_1": 313, "event_id_cnty": "SYR109381", "day": 20, "month": 12, "year": 2022, "location": "Zur Maghar", "latitude": 36.8346, "longitude": 38.0347 }, "geometry": { "type": "Point", "coordinates": [ 38.0347, 36.8346 ] } },
{ "type": "Feature", "properties": { "field_1": 314, "event_id_cnty": "SYR109399", "day": 20, "month": 12, "year": 2022, "location": "Sur", "latitude": 35.5066, "longitude": 40.6618 }, "geometry": { "type": "Point", "coordinates": [ 40.6618, 35.5066 ] } },
{ "type": "Feature", "properties": { "field_1": 315, "event_id_cnty": "SYR109436", "day": 20, "month": 12, "year": 2022, "location": "Ithariyah", "latitude": 35.3652, "longitude": 37.7886 }, "geometry": { "type": "Point", "coordinates": [ 37.7886, 35.3652 ] } },
{ "type": "Feature", "properties": { "field_1": 316, "event_id_cnty": "SYR109439", "day": 20, "month": 12, "year": 2022, "location": "Kharab Shahem", "latitude": 32.669, "longitude": 36.0267 }, "geometry": { "type": "Point", "coordinates": [ 36.0267, 32.669 ] } },
{ "type": "Feature", "properties": { "field_1": 317, "event_id_cnty": "SYR109443", "day": 20, "month": 12, "year": 2022, "location": "Hole Camp", "latitude": 36.3768, "longitude": 41.1333 }, "geometry": { "type": "Point", "coordinates": [ 41.1333, 36.3768 ] } },
{ "type": "Feature", "properties": { "field_1": 318, "event_id_cnty": "SYR109466", "day": 20, "month": 12, "year": 2022, "location": "Nawa", "latitude": 32.8882, "longitude": 36.041 }, "geometry": { "type": "Point", "coordinates": [ 36.041, 32.8882 ] } },
{ "type": "Feature", "properties": { "field_1": 319, "event_id_cnty": "SYR109468", "day": 20, "month": 12, "year": 2022, "location": "Mare'", "latitude": 36.4827, "longitude": 37.1965 }, "geometry": { "type": "Point", "coordinates": [ 37.1965, 36.4827 ] } },
{ "type": "Feature", "properties": { "field_1": 320, "event_id_cnty": "SYR109607", "day": 20, "month": 12, "year": 2022, "location": "Shadadah", "latitude": 36.0534, "longitude": 40.7268 }, "geometry": { "type": "Point", "coordinates": [ 40.7268, 36.0534 ] } },
{ "type": "Feature", "properties": { "field_1": 321, "event_id_cnty": "TUR28313", "day": 20, "month": 12, "year": 2022, "location": "Sapanca", "latitude": 40.6914, "longitude": 30.2674 }, "geometry": { "type": "Point", "coordinates": [ 30.2674, 40.6914 ] } },
{ "type": "Feature", "properties": { "field_1": 322, "event_id_cnty": "TUR28350", "day": 20, "month": 12, "year": 2022, "location": "Catalca", "latitude": 41.1432, "longitude": 28.4615 }, "geometry": { "type": "Point", "coordinates": [ 28.4615, 41.1432 ] } },
{ "type": "Feature", "properties": { "field_1": 323, "event_id_cnty": "TUR28364", "day": 20, "month": 12, "year": 2022, "location": "Judi Mountain", "latitude": 37.3694, "longitude": 42.3442 }, "geometry": { "type": "Point", "coordinates": [ 42.3442, 37.3694 ] } },
{ "type": "Feature", "properties": { "field_1": 324, "event_id_cnty": "SYR110184", "day": 20, "month": 12, "year": 2022, "location": "Abla", "latitude": 36.4331, "longitude": 37.3551 }, "geometry": { "type": "Point", "coordinates": [ 37.3551, 36.4331 ] } },
{ "type": "Feature", "properties": { "field_1": 325, "event_id_cnty": "SYR110266", "day": 20, "month": 12, "year": 2022, "location": "T2 Pumping Station", "latitude": 34.3764, "longitude": 40.1522 }, "geometry": { "type": "Point", "coordinates": [ 40.1522, 34.3764 ] } },
{ "type": "Feature", "properties": { "field_1": 326, "event_id_cnty": "SYR109284", "day": 20, "month": 12, "year": 2022, "location": "Al Bab", "latitude": 36.3697, "longitude": 37.5149 }, "geometry": { "type": "Point", "coordinates": [ 37.5149, 36.3697 ] } },
{ "type": "Feature", "properties": { "field_1": 327, "event_id_cnty": "SYR109285", "day": 20, "month": 12, "year": 2022, "location": "Sayyeda Zeinab", "latitude": 33.4466, "longitude": 36.3406 }, "geometry": { "type": "Point", "coordinates": [ 36.3406, 33.4466 ] } },
{ "type": "Feature", "properties": { "field_1": 328, "event_id_cnty": "SYR109286", "day": 20, "month": 12, "year": 2022, "location": "Damascus - International Airport", "latitude": 33.417, "longitude": 36.509 }, "geometry": { "type": "Point", "coordinates": [ 36.509, 33.417 ] } },
{ "type": "Feature", "properties": { "field_1": 329, "event_id_cnty": "SYR109070", "day": 19, "month": 12, "year": 2022, "location": "Qebtan al Jabal", "latitude": 36.2637, "longitude": 36.9487 }, "geometry": { "type": "Point", "coordinates": [ 36.9487, 36.2637 ] } },
{ "type": "Feature", "properties": { "field_1": 330, "event_id_cnty": "SYR109100", "day": 19, "month": 12, "year": 2022, "location": "Sidnaya Military Prison", "latitude": 33.6653, "longitude": 36.329 }, "geometry": { "type": "Point", "coordinates": [ 36.329, 33.6653 ] } },
{ "type": "Feature", "properties": { "field_1": 331, "event_id_cnty": "SYR109105", "day": 19, "month": 12, "year": 2022, "location": "Atmah", "latitude": 36.3095, "longitude": 36.6884 }, "geometry": { "type": "Point", "coordinates": [ 36.6884, 36.3095 ] } },
{ "type": "Feature", "properties": { "field_1": 332, "event_id_cnty": "SYR109149", "day": 19, "month": 12, "year": 2022, "location": "Tadaf", "latitude": 36.3479, "longitude": 37.5294 }, "geometry": { "type": "Point", "coordinates": [ 37.5294, 36.3479 ] } },
{ "type": "Feature", "properties": { "field_1": 333, "event_id_cnty": "SYR109151", "day": 19, "month": 12, "year": 2022, "location": "Taqad", "latitude": 36.1987, "longitude": 36.8698 }, "geometry": { "type": "Point", "coordinates": [ 36.8698, 36.1987 ] } },
{ "type": "Feature", "properties": { "field_1": 334, "event_id_cnty": "SYR109152", "day": 19, "month": 12, "year": 2022, "location": "Busraton", "latitude": 36.2028, "longitude": 36.9104 }, "geometry": { "type": "Point", "coordinates": [ 36.9104, 36.2028 ] } },
{ "type": "Feature", "properties": { "field_1": 335, "event_id_cnty": "SYR109184", "day": 19, "month": 12, "year": 2022, "location": "Al-Bukamal", "latitude": 34.4546, "longitude": 40.9116 }, "geometry": { "type": "Point", "coordinates": [ 40.9116, 34.4546 ] } },
{ "type": "Feature", "properties": { "field_1": 336, "event_id_cnty": "SYR109267", "day": 19, "month": 12, "year": 2022, "location": "Al Salameh", "latitude": 36.6189, "longitude": 37.075 }, "geometry": { "type": "Point", "coordinates": [ 37.075, 36.6189 ] } },
{ "type": "Feature", "properties": { "field_1": 337, "event_id_cnty": "SYR109331", "day": 19, "month": 12, "year": 2022, "location": "Bara", "latitude": 35.686, "longitude": 36.5424 }, "geometry": { "type": "Point", "coordinates": [ 36.5424, 35.686 ] } },
{ "type": "Feature", "properties": { "field_1": 338, "event_id_cnty": "SYR109332", "day": 19, "month": 12, "year": 2022, "location": "Kafr Amma", "latitude": 36.1409, "longitude": 36.8735 }, "geometry": { "type": "Point", "coordinates": [ 36.8735, 36.1409 ] } },
{ "type": "Feature", "properties": { "field_1": 339, "event_id_cnty": "SYR109333", "day": 19, "month": 12, "year": 2022, "location": "Kafr Taal", "latitude": 36.1542, "longitude": 36.8935 }, "geometry": { "type": "Point", "coordinates": [ 36.8935, 36.1542 ] } },
{ "type": "Feature", "properties": { "field_1": 340, "event_id_cnty": "SYR109334", "day": 19, "month": 12, "year": 2022, "location": "Kansafra", "latitude": 35.6599, "longitude": 36.4849 }, "geometry": { "type": "Point", "coordinates": [ 36.4849, 35.6599 ] } },
{ "type": "Feature", "properties": { "field_1": 341, "event_id_cnty": "SYR109335", "day": 19, "month": 12, "year": 2022, "location": "Maaret Al Naasan", "latitude": 36.0351, "longitude": 36.8376 }, "geometry": { "type": "Point", "coordinates": [ 36.8376, 36.0351 ] } },
{ "type": "Feature", "properties": { "field_1": 342, "event_id_cnty": "SYR109336", "day": 19, "month": 12, "year": 2022, "location": "San", "latitude": 35.8414, "longitude": 36.7353 }, "geometry": { "type": "Point", "coordinates": [ 36.7353, 35.8414 ] } },
{ "type": "Feature", "properties": { "field_1": 343, "event_id_cnty": "SYR109337", "day": 19, "month": 12, "year": 2022, "location": "Shaykh Sulayman", "latitude": 36.2761, "longitude": 36.9096 }, "geometry": { "type": "Point", "coordinates": [ 36.9096, 36.2761 ] } },
{ "type": "Feature", "properties": { "field_1": 344, "event_id_cnty": "SYR109338", "day": 19, "month": 12, "year": 2022, "location": "Atareb", "latitude": 36.1379, "longitude": 36.8284 }, "geometry": { "type": "Point", "coordinates": [ 36.8284, 36.1379 ] } },
{ "type": "Feature", "properties": { "field_1": 345, "event_id_cnty": "SYR109361", "day": 19, "month": 12, "year": 2022, "location": "Jarqili Kabir", "latitude": 36.8576, "longitude": 38.0907 }, "geometry": { "type": "Point", "coordinates": [ 38.0907, 36.8576 ] } },
{ "type": "Feature", "properties": { "field_1": 346, "event_id_cnty": "SYR109362", "day": 19, "month": 12, "year": 2022, "location": "Tall Tawil", "latitude": 36.663, "longitude": 40.2836 }, "geometry": { "type": "Point", "coordinates": [ 40.2836, 36.663 ] } },
{ "type": "Feature", "properties": { "field_1": 347, "event_id_cnty": "SYR109363", "day": 19, "month": 12, "year": 2022, "location": "Tawileh", "latitude": 36.6509, "longitude": 40.2713 }, "geometry": { "type": "Point", "coordinates": [ 40.2713, 36.6509 ] } },
{ "type": "Feature", "properties": { "field_1": 348, "event_id_cnty": "SYR109435", "day": 19, "month": 12, "year": 2022, "location": "Dweir", "latitude": 34.7672, "longitude": 40.658 }, "geometry": { "type": "Point", "coordinates": [ 40.658, 34.7672 ] } },
{ "type": "Feature", "properties": { "field_1": 349, "event_id_cnty": "SYR109463", "day": 19, "month": 12, "year": 2022, "location": "Big Sandaliyeh", "latitude": 36.4618, "longitude": 38.2385 }, "geometry": { "type": "Point", "coordinates": [ 38.2385, 36.4618 ] } },
{ "type": "Feature", "properties": { "field_1": 350, "event_id_cnty": "TUR28343", "day": 19, "month": 12, "year": 2022, "location": "Judi Mountain", "latitude": 37.3694, "longitude": 42.3442 }, "geometry": { "type": "Point", "coordinates": [ 42.3442, 37.3694 ] } },
{ "type": "Feature", "properties": { "field_1": 351, "event_id_cnty": "SYR109091", "day": 19, "month": 12, "year": 2022, "location": "Damascus", "latitude": 33.5172, "longitude": 36.2767 }, "geometry": { "type": "Point", "coordinates": [ 36.2767, 33.5172 ] } },
{ "type": "Feature", "properties": { "field_1": 352, "event_id_cnty": "SYR109060", "day": 18, "month": 12, "year": 2022, "location": "Kafr Amma", "latitude": 36.1409, "longitude": 36.8735 }, "geometry": { "type": "Point", "coordinates": [ 36.8735, 36.1409 ] } },
{ "type": "Feature", "properties": { "field_1": 353, "event_id_cnty": "SYR109069", "day": 18, "month": 12, "year": 2022, "location": "Qebtan al Jabal", "latitude": 36.2637, "longitude": 36.9487 }, "geometry": { "type": "Point", "coordinates": [ 36.9487, 36.2637 ] } },
{ "type": "Feature", "properties": { "field_1": 354, "event_id_cnty": "SYR109121", "day": 18, "month": 12, "year": 2022, "location": "Bahfis", "latitude": 36.1838, "longitude": 36.9063 }, "geometry": { "type": "Point", "coordinates": [ 36.9063, 36.1838 ] } },
{ "type": "Feature", "properties": { "field_1": 355, "event_id_cnty": "SYR109160", "day": 18, "month": 12, "year": 2022, "location": "Maaret Al Naasan", "latitude": 36.0351, "longitude": 36.8376 }, "geometry": { "type": "Point", "coordinates": [ 36.8376, 36.0351 ] } },
{ "type": "Feature", "properties": { "field_1": 356, "event_id_cnty": "SYR109161", "day": 18, "month": 12, "year": 2022, "location": "Arbikh", "latitude": 36.0043, "longitude": 36.8488 }, "geometry": { "type": "Point", "coordinates": [ 36.8488, 36.0043 ] } },
{ "type": "Feature", "properties": { "field_1": 357, "event_id_cnty": "SYR109266", "day": 18, "month": 12, "year": 2022, "location": "Azaz", "latitude": 36.5849, "longitude": 37.0432 }, "geometry": { "type": "Point", "coordinates": [ 37.0432, 36.5849 ] } },
{ "type": "Feature", "properties": { "field_1": 358, "event_id_cnty": "SYR109271", "day": 18, "month": 12, "year": 2022, "location": "Al Salameh", "latitude": 36.6189, "longitude": 37.075 }, "geometry": { "type": "Point", "coordinates": [ 37.075, 36.6189 ] } },
{ "type": "Feature", "properties": { "field_1": 359, "event_id_cnty": "SYR109312", "day": 18, "month": 12, "year": 2022, "location": "Kafruma", "latitude": 35.6353, "longitude": 36.6331 }, "geometry": { "type": "Point", "coordinates": [ 36.6331, 35.6353 ] } },
{ "type": "Feature", "properties": { "field_1": 360, "event_id_cnty": "SYR109321", "day": 18, "month": 12, "year": 2022, "location": "Afes", "latitude": 35.9064, "longitude": 36.8045 }, "geometry": { "type": "Point", "coordinates": [ 36.8045, 35.9064 ] } },
{ "type": "Feature", "properties": { "field_1": 361, "event_id_cnty": "SYR109322", "day": 18, "month": 12, "year": 2022, "location": "Bahfis", "latitude": 36.1838, "longitude": 36.9063 }, "geometry": { "type": "Point", "coordinates": [ 36.9063, 36.1838 ] } },
{ "type": "Feature", "properties": { "field_1": 362, "event_id_cnty": "SYR109323", "day": 18, "month": 12, "year": 2022, "location": "Bara", "latitude": 35.686, "longitude": 36.5424 }, "geometry": { "type": "Point", "coordinates": [ 36.5424, 35.686 ] } },
{ "type": "Feature", "properties": { "field_1": 363, "event_id_cnty": "SYR109324", "day": 18, "month": 12, "year": 2022, "location": "Ftireh", "latitude": 35.6097, "longitude": 36.4853 }, "geometry": { "type": "Point", "coordinates": [ 36.4853, 35.6097 ] } },
{ "type": "Feature", "properties": { "field_1": 364, "event_id_cnty": "SYR109325", "day": 18, "month": 12, "year": 2022, "location": "Kafr Oweid", "latitude": 35.6282, "longitude": 36.4575 }, "geometry": { "type": "Point", "coordinates": [ 36.4575, 35.6282 ] } },
{ "type": "Feature", "properties": { "field_1": 365, "event_id_cnty": "SYR109326", "day": 18, "month": 12, "year": 2022, "location": "Kafr Taal", "latitude": 36.1542, "longitude": 36.8935 }, "geometry": { "type": "Point", "coordinates": [ 36.8935, 36.1542 ] } },
{ "type": "Feature", "properties": { "field_1": 366, "event_id_cnty": "SYR109327", "day": 18, "month": 12, "year": 2022, "location": "Maaret Al Naasan", "latitude": 36.0351, "longitude": 36.8376 }, "geometry": { "type": "Point", "coordinates": [ 36.8376, 36.0351 ] } },
{ "type": "Feature", "properties": { "field_1": 367, "event_id_cnty": "SYR109328", "day": 18, "month": 12, "year": 2022, "location": "Mejazir", "latitude": 35.8994, "longitude": 36.7694 }, "geometry": { "type": "Point", "coordinates": [ 36.7694, 35.8994 ] } },
{ "type": "Feature", "properties": { "field_1": 368, "event_id_cnty": "SYR109329", "day": 18, "month": 12, "year": 2022, "location": "Kafr Noran", "latitude": 36.078, "longitude": 36.8322 }, "geometry": { "type": "Point", "coordinates": [ 36.8322, 36.078 ] } },
{ "type": "Feature", "properties": { "field_1": 369, "event_id_cnty": "SYR109330", "day": 18, "month": 12, "year": 2022, "location": "Tadil", "latitude": 36.1647, "longitude": 36.888 }, "geometry": { "type": "Point", "coordinates": [ 36.888, 36.1647 ] } },
{ "type": "Feature", "properties": { "field_1": 370, "event_id_cnty": "SYR109410", "day": 18, "month": 12, "year": 2022, "location": "Ali", "latitude": 35.5413, "longitude": 39.9449 }, "geometry": { "type": "Point", "coordinates": [ 39.9449, 35.5413 ] } },
{ "type": "Feature", "properties": { "field_1": 371, "event_id_cnty": "SYR109434", "day": 18, "month": 12, "year": 2022, "location": "Tabni", "latitude": 35.605, "longitude": 39.8191 }, "geometry": { "type": "Point", "coordinates": [ 39.8191, 35.605 ] } },
{ "type": "Feature", "properties": { "field_1": 372, "event_id_cnty": "SYR109450", "day": 18, "month": 12, "year": 2022, "location": "Dar'a", "latitude": 32.6241, "longitude": 36.1049 }, "geometry": { "type": "Point", "coordinates": [ 36.1049, 32.6241 ] } },
{ "type": "Feature", "properties": { "field_1": 373, "event_id_cnty": "SYR109473", "day": 18, "month": 12, "year": 2022, "location": "Nawa", "latitude": 32.8882, "longitude": 36.041 }, "geometry": { "type": "Point", "coordinates": [ 36.041, 32.8882 ] } },
{ "type": "Feature", "properties": { "field_1": 374, "event_id_cnty": "SYR109474", "day": 18, "month": 12, "year": 2022, "location": "Dar'a - Bahar", "latitude": 32.6026, "longitude": 36.1027 }, "geometry": { "type": "Point", "coordinates": [ 36.1027, 32.6026 ] } },
{ "type": "Feature", "properties": { "field_1": 375, "event_id_cnty": "TUR28289", "day": 18, "month": 12, "year": 2022, "location": "Menemen", "latitude": 38.6075, "longitude": 27.0694 }, "geometry": { "type": "Point", "coordinates": [ 27.0694, 38.6075 ] } },
{ "type": "Feature", "properties": { "field_1": 376, "event_id_cnty": "SYR109078", "day": 18, "month": 12, "year": 2022, "location": "Dweir", "latitude": 34.7672, "longitude": 40.658 }, "geometry": { "type": "Point", "coordinates": [ 40.658, 34.7672 ] } },
{ "type": "Feature", "properties": { "field_1": 377, "event_id_cnty": "SYR110133", "day": 18, "month": 12, "year": 2022, "location": "Al Qusayr", "latitude": 34.5078, "longitude": 36.5803 }, "geometry": { "type": "Point", "coordinates": [ 36.5803, 34.5078 ] } },
{ "type": "Feature", "properties": { "field_1": 378, "event_id_cnty": "SYR110199", "day": 18, "month": 12, "year": 2022, "location": "Zughyer", "latitude": 35.5038, "longitude": 40.0159 }, "geometry": { "type": "Point", "coordinates": [ 40.0159, 35.5038 ] } },
{ "type": "Feature", "properties": { "field_1": 379, "event_id_cnty": "SYR109066", "day": 18, "month": 12, "year": 2022, "location": "Ali", "latitude": 35.5413, "longitude": 39.9449 }, "geometry": { "type": "Point", "coordinates": [ 39.9449, 35.5413 ] } },